{"_id":{"$oid":"5846621e8c37af5a7797193b"},"reviews":[],"geometry":{"coordinate":{"latitude":16.04104575576174,"longitude":108.24862360954285}},"subcategoryid":"5843e3b225e3685babdd86f7","name":"Sea Phoenix Da Nang Hotel","address":"115 Ho Xuan Huong","cityid":"5848e3787339a503efe9beeb","district":"Phuoc My","telephone":"","kname":"씨 피닉스 다낭 호텔"}
{"_id":{"$oid":"5846621e8c37af5a7797193d"},"reviews":[],"geometry":{"coordinate":{"latitude":16.0543094139637,"longitude":108.22219848632801}},"subcategoryid":"5843e3b225e3685babdd86f7","name":"Long Phu Hotel Danang","address":"420, 2/9 Street","cityid":"5848e3787339a503efe9beeb","district":"Hai Chau","telephone":"","kname":"롱 푸 호텔 다낭"}
{"_id":{"$oid":"5846621e8c37af5a7797193a"},"reviews":[],"geometry":{"coordinate":{"latitude":15.973665696082673,"longitude":108.28157186508179}},"subcategoryid":"5843e3b225e3685babdd86f7","name":"Mangala Garden Villa","address":"Villa J2, The Oceanvillas, Truong Sa Street","cityid":"5848e3787339a503efe9beeb","district":"Ngu Hanh Son","kname":"망갈라 가든 빌라","telephone":""}
{"_id":{"$oid":"5846621e8c37af5a7797193c"},"reviews":[],"geometry":{"coordinate":{"latitude":16.03752326965332,"longitude":108.25260162353516}},"subcategoryid":"5843e3b225e3685babdd86f7","name":"Furama Villas Danang","address":"B Vo Nguyen Giap","cityid":"5848e3787339a503efe9beeb","district":"Khue My","telephone":"","kname":"푸라마 빌라 다낭"}
{"_id":{"$oid":"5846621e8c37af5a7797193f"},"reviews":[],"geometry":{"coordinate":{"latitude":16.06831617883007,"longitude":108.24419796466827}},"subcategoryid":"5843e3b225e3685babdd86f7","name":"Grand Sea Hotel","address":"08 Ha Bong","cityid":"5848e3787339a503efe9beeb","district":"Phuoc My","telephone":"","kname":"그랜드 씨 호텔"}
{"_id":{"$oid":"5846621e8c37af5a7797193e"},"reviews":[],"geometry":{"coordinate":{"latitude":16.068126818808878,"longitude":108.24421053752303}},"subcategoryid":"5843e3b225e3685babdd86f7","name":"Le House Boutique Hotel","address":"85-87 Ha Bong","cityid":"5848e3787339a503efe9beeb","district":"Phuoc My","telephone":"","kname":"르 호텔 부티크 호텔"}
{"_id":{"$oid":"5846621e8c37af5a77971941"},"reviews":[],"geometry":{"coordinate":{"latitude":16.0497212280376,"longitude":108.24708938598599}},"subcategoryid":"5843e3b225e3685babdd86f7","name":"Avatar Hotel","address":"120 An Thuong 2","cityid":"5848e3787339a503efe9beeb","district":"Phuoc My","telephone":"","kname":"아바타 호텔"}
{"_id":{"$oid":"5846621e8c37af5a77971940"},"reviews":[],"geometry":{"coordinate":{"latitude":16.0824844846097,"longitude":108.247647285461}},"subcategoryid":"5843e3b225e3685babdd86f7","name":"Jazz Hotel","address":"68 Vo Nguyen Giap","cityid":"5848e3787339a503efe9beeb","district":"Phuoc My","telephone":"","kname":"재즈 호텔"}
{"_id":{"$oid":"5846621e8c37af5a77971942"},"reviews":[],"geometry":{"coordinate":{"latitude":16.0620964,"longitude":108.2306944}},"subcategoryid":"5843e3b225e3685babdd86f7","name":"Da Nang Riverside Hotel","address":"A 30, Tran Hung Dao","cityid":"5848e3787339a503efe9beeb","district":"Son Tra","telephone":"","kname":"다낭 리버사이드 호텔"}
{"_id":{"$oid":"5846621e8c37af5a77971943"},"reviews":[],"geometry":{"coordinate":{"latitude":16.0667330719586,"longitude":108.223842680454}},"subcategoryid":"5843e3b225e3685babdd86f7","name":"Bamboo Green Hotel","address":"177 Tran Phu","cityid":"5848e3787339a503efe9beeb","district":"Hai Chau","telephone":"","kname":"밤부 그린 호텔"}
{"_id":{"$oid":"5846621e8c37af5a77971944"},"reviews":[],"geometry":{"coordinate":{"latitude":15.9997099589557,"longitude":108.269120997138}},"subcategoryid":"5843e3b225e3685babdd86f7","name":"Melia Danang Resort","address":"Group 39, Hoa Hai","cityid":"5848e3787339a503efe9beeb","district":"Ngu Hanh Son","telephone":"","kname":"멜리아 다낭 리조트"}
{"_id":{"$oid":"5846621e8c37af5a77971947"},"reviews":[],"geometry":{"coordinate":{"latitude":16.070213151960704,"longitude":108.21370393037796}},"subcategoryid":"5843e3b225e3685babdd86f7","name":"Iris Hotel Danang","address":"181-183 Le Duan","cityid":"5848e3787339a503efe9beeb","district":"Hai Chau","telephone":"","kname":"아이리스 호텔 다낭"}
{"_id":{"$oid":"5846621e8c37af5a77971948"},"reviews":[],"geometry":{"coordinate":{"latitude":16.0091034439217,"longitude":108.264813423157}},"subcategoryid":"5843e3b225e3685babdd86f7","name":"Vinpearl Villas Danang","address":"A Truong Sa, Hoa Hai","cityid":"5848e3787339a503efe9beeb","district":"Ngu Hanh Son","telephone":"","kname":"빈펄 빌라 다낭"}
{"_id":{"$oid":"5846621e8c37af5a77971949"},"reviews":[],"geometry":{"coordinate":{"latitude":16.092041015625,"longitude":108.217132568359}},"subcategoryid":"5843e3b225e3685babdd86f7","name":"Azumaya Hotel Da Nang","address":"31 Nguyen Tat Thanh","cityid":"5848e3787339a503efe9beeb","district":"Hai Chau","telephone":"","kname":"아주마야 호텔 다낭"}
{"_id":{"$oid":"5846621e8c37af5a77971946"},"reviews":[],"geometry":{"coordinate":{"latitude":16.0651402064589,"longitude":108.21929633617401}},"subcategoryid":"5843e3b225e3685babdd86f7","name":"Orange Hotel","address":"29 Hoang Dieu, Phuoc Ninh","cityid":"5848e3787339a503efe9beeb","district":"Hai Chau","telephone":"","kname":"오렌지 호텔"}
{"_id":{"$oid":"5846621e8c37af5a7797194a"},"reviews":[],"geometry":{"coordinate":{"latitude":16.0603099829532,"longitude":108.214210867882}},"subcategoryid":"5843e3b225e3685babdd86f7","name":"Flora Hotel","address":"103 Nguyen Van Linh","cityid":"5848e3787339a503efe9beeb","district":"Hai Chau","telephone":"","kname":"플로라 호텔"}
{"_id":{"$oid":"5846621e8c37af5a7797194b"},"reviews":[],"geometry":{"coordinate":{"latitude":16.066857,"longitude":108.245102}},"subcategoryid":"5843e3b225e3685babdd86f7","name":"Bluesun Hotel","address":"230 Vo Nguyen Giap, Phuoc My","cityid":"5848e3787339a503efe9beeb","district":"Son Tra","telephone":"","kname":"블루선 호텔"}
{"_id":{"$oid":"5846621e8c37af5a7797194c"},"reviews":[],"geometry":{"coordinate":{"latitude":16.0674753738544,"longitude":108.224671483039}},"subcategoryid":"5843e3b225e3685babdd86f7","name":"Sun River Hotel","address":"132-134-136 Bach Dang","cityid":"5848e3787339a503efe9beeb","district":"Hai Chau","telephone":"","kname":"선 리버 호텔"}
{"_id":{"$oid":"5846621e8c37af5a7797194d"},"reviews":[],"geometry":{"coordinate":{"latitude":16.056367458098922,"longitude":108.2468318939209}},"subcategoryid":"5843e3b225e3685babdd86f7","name":"Bac Cuong Hotel","address":"Lot 30.31.32 Nguyen Van Thoai","cityid":"5848e3787339a503efe9beeb","district":"Phuoc My","telephone":"","kname":"박 쿠옹 호텔"}
{"_id":{"$oid":"5846621e8c37af5a77971945"},"reviews":[],"geometry":{"coordinate":{"latitude":16.0517896301377,"longitude":108.246713876724}},"subcategoryid":"5843e3b225e3685babdd86f7","name":"Suite De Ville Da Nang Beach","address":"16-17-18 Do Ba, My An","cityid":"5848e3787339a503efe9beeb","district":"Ngu Hanh Son","telephone":"","kname":"스위트 드 빌 다낭 비치"}
{"_id":{"$oid":"5846621e8c37af5a7797194e"},"reviews":[],"geometry":{"coordinate":{"latitude":16.067304,"longitude":108.22425399999997}},"subcategoryid":"5843e3b225e3685babdd86f7","name":"Centre Hotel","address":"18-20 Pham Phu Thu","cityid":"5848e3787339a503efe9beeb","district":"Hai Chau","telephone":"","kname":"센터 호텔"}
{"_id":{"$oid":"5846621e8c37af5a77971951"},"reviews":[],"geometry":{"coordinate":{"latitude":16.063654938101983,"longitude":108.21968793869019}},"subcategoryid":"5843e3b225e3685babdd86f7","name":"Moonlight Hotel Da Nang","address":"136-138-140 Phan Chau Trinh","cityid":"5848e3787339a503efe9beeb","district":"Hai Chau","telephone":"","kname":"문라이트 호텔 다낭"}
{"_id":{"$oid":"5846621e8c37af5a77971952"},"reviews":[],"geometry":{"coordinate":{"latitude":16.0509486,"longitude":108.2453517}},"subcategoryid":"5843e3b225e3685babdd86f7","name":"Queen’s Finger Hotel","address":"155-157 Le Quang Dao, My An","cityid":"5848e3787339a503efe9beeb","district":"Ngu Hanh Son","telephone":"","kname":"퀸스 핑거 호텔"}
{"_id":{"$oid":"5846621e8c37af5a77971953"},"reviews":[],"geometry":{"coordinate":{"latitude":16.0534629821777,"longitude":108.217697143555}},"subcategoryid":"5843e3b225e3685babdd86f7","name":"Tien Thinh Hotel Danang","address":"446-448 Hoang Dieu","cityid":"5848e3787339a503efe9beeb","district":"Hai Chau","telephone":"","kname":"티엔 틴 호텔 다낭"}
{"_id":{"$oid":"5846621e8c37af5a77971954"},"reviews":[],"geometry":{"coordinate":{"latitude":16.06039384,"longitude":108.21645}},"subcategoryid":"5843e3b225e3685babdd86f7","name":"Oneopera Danang Hotel","address":"115 Nguyen Van Linh","cityid":"5848e3787339a503efe9beeb","district":"Hai Chau","telephone":"","kname":"원오페라 다낭 호텔"}
{"_id":{"$oid":"5846621e8c37af5a77971950"},"reviews":[],"geometry":{"coordinate":{"latitude":16.059062456872,"longitude":108.20825099945102}},"subcategoryid":"5843e3b225e3685babdd86f7","name":"Samdi Hotel","address":"203-205-207-209-211 Nguyen Van Linh","cityid":"5848e3787339a503efe9beeb","district":"Hai Chau","telephone":"","kname":"삼디 호텔"}
{"_id":{"$oid":"5846621e8c37af5a77971955"},"reviews":[],"geometry":{"coordinate":{"latitude":16.07481003,"longitude":108.2210922}},"subcategoryid":"5843e3b225e3685babdd86f7","name":"Danang Petro Hotel","address":"07 Quang Trung","cityid":"5848e3787339a503efe9beeb","district":"Hai Chau","telephone":"","kname":"다낭 페트로 호텔"}
{"_id":{"$oid":"5846621e8c37af5a77971956"},"reviews":[],"geometry":{"coordinate":{"latitude":16.085878516697917,"longitude":108.21803569793701}},"subcategoryid":"5843e3b225e3685babdd86f7","name":"Stay Hotel","address":"119, 3/2 Street","cityid":"5848e3787339a503efe9beeb","district":"Hai Chau","telephone":"","kname":"스테이 호텔"}
{"_id":{"$oid":"5846621e8c37af5a77971957"},"reviews":[],"geometry":{"coordinate":{"latitude":16.0680465698242,"longitude":108.223670959473}},"subcategoryid":"5843e3b225e3685babdd86f7","name":"Mayana Hotel Danang","address":"40 Nguyen Thai Hoc","cityid":"5848e3787339a503efe9beeb","district":"Hai Chau","telephone":"","kname":"마야나 호텔 다낭"}
{"_id":{"$oid":"5846621e8c37af5a77971958"},"reviews":[],"geometry":{"coordinate":{"latitude":16.048371,"longitude":108.227005}},"subcategoryid":"5843e3b225e3685babdd86f7","name":"Grand Mercure Danang","address":"Lot A1 Zone Of The Villas Of Green Island","cityid":"5848e3787339a503efe9beeb","district":"Hai Chau","telephone":"","kname":"그랜드 머큐어 다낭"}
{"_id":{"$oid":"5846621e8c37af5a7797194f"},"reviews":[],"geometry":{"coordinate":{"latitude":16.0486328208207,"longitude":108.248358920216}},"subcategoryid":"5843e3b225e3685babdd86f7","name":"Grand Mango Hotel Danang","address":"60 An Thuong 1, My Khue","cityid":"5848e3787339a503efe9beeb","district":"","telephone":"","kname":"그랜드 망고 호텔 다낭"}
{"_id":{"$oid":"5846621e8c37af5a77971959"},"reviews":[],"geometry":{"coordinate":{"latitude":16.0708078048522,"longitude":108.241748269647}},"subcategoryid":"5843e3b225e3685babdd86f7","name":"Frangipani Boutique Hotel Da Nang","address":"08 Nguyen Huu Thong, Phuoc My","cityid":"5848e3787339a503efe9beeb","district":"","telephone":"","kname":"프랑기파니 부티크 호텔 다낭"}
{"_id":{"$oid":"5846621e8c37af5a7797195a"},"reviews":[],"geometry":{"coordinate":{"latitude":15.9589754817387,"longitude":108.287353513297}},"subcategoryid":"5843e3b225e3685babdd86f7","name":"Montgomerie Links Villas Hoi An","address":"Truong Sa, Hoa Hai","cityid":"5848e3787339a503efe9beeb","district":"","telephone":"","kname":"몽고메리 링크 빌라 호이 안"}
{"_id":{"$oid":"5846621e8c37af5a7797195d"},"reviews":[],"geometry":{"coordinate":{"latitude":16.0659247660693,"longitude":108.224289759993}},"subcategoryid":"5843e3b225e3685babdd86f7","name":"Dana Pearl 2 Hotel","address":"186 Bach Dang","cityid":"5848e3787339a503efe9beeb","district":"Hai Chau","telephone":"","kname":"다나 펄 2 호텔"}
{"_id":{"$oid":"5846621e8c37af5a7797195b"},"reviews":[],"geometry":{"coordinate":{"latitude":16.074670791626,"longitude":108.245811462402}},"subcategoryid":"5843e3b225e3685babdd86f7","name":"Temple Resort Experience Danang","address":"Vo Nguyen Giap","cityid":"5848e3787339a503efe9beeb","district":"Son Tra","telephone":"","kname":""}
{"_id":{"$oid":"5846621e8c37af5a7797195e"},"reviews":[],"geometry":{"coordinate":{"latitude":16.0298333,"longitude":108.25423869999997}},"subcategoryid":"5843e3b225e3685babdd86f7","name":"Serene Danang Hotel","address":"274 Vo Nguyen Giap, My An","cityid":"5848e3787339a503efe9beeb","district":"Ngu Hanh Son","telephone":"","kname":"서린 다낭 호텔"}
{"_id":{"$oid":"5846621e8c37af5a7797195f"},"reviews":[],"geometry":{"coordinate":{"latitude":16.0683097839355,"longitude":108.230506896973}},"subcategoryid":"5843e3b225e3685babdd86f7","name":"D\u0026C Hotel Danang","address":"01 Mai Hac De","cityid":"5848e3787339a503efe9beeb","district":"Son Tra","telephone":"","kname":"D\u0026C 호텔 다낭"}
{"_id":{"$oid":"5846621e8c37af5a77971960"},"reviews":[],"geometry":{"coordinate":{"latitude":16.0659804574866,"longitude":108.222477436066}},"subcategoryid":"5843e3b225e3685babdd86f7","name":"Dai A Hotel","address":"51 Yen Bay","cityid":"5848e3787339a503efe9beeb","district":"Hai Chau","telephone":"","kname":"다이 A 호텔"}
{"_id":{"$oid":"5846621e8c37af5a7797195c"},"reviews":[],"geometry":{"coordinate":{"latitude":16.0627937316895,"longitude":108.220527648926}},"subcategoryid":"5843e3b225e3685babdd86f7","name":"Sion Hotel Danang","address":"121/7 Hoang Van Thu","cityid":"5848e3787339a503efe9beeb","district":"Hai Chau","telephone":"","kname":"시온 호텔 다낭"}
{"_id":{"$oid":"5846621e8c37af5a77971961"},"reviews":[],"geometry":{"coordinate":{"latitude":16.0501800513872,"longitude":108.222059011459}},"subcategoryid":"5843e3b225e3685babdd86f7","name":"Minh Toan Hotel","address":"162 - 2/9 Street","cityid":"5848e3787339a503efe9beeb","district":"Hai Chau","telephone":"","kname":"민 토안 호텔"}
{"_id":{"$oid":"5846621e8c37af5a77971962"},"reviews":[],"geometry":{"coordinate":{"latitude":16.070629119873,"longitude":108.237800598145}},"subcategoryid":"5843e3b225e3685babdd86f7","name":"Vian Hotel Danang","address":"124 Pham Van Dong, Phuoc My","cityid":"5848e3787339a503efe9beeb","district":"","telephone":"","kname":"비안 호텔 다낭"}
{"_id":{"$oid":"5846621e8c37af5a77971964"},"reviews":[],"geometry":{"coordinate":{"latitude":16.0542217754477,"longitude":108.247507810593}},"subcategoryid":"5843e3b225e3685babdd86f7","name":"Lion Sea Hotel Danang","address":"Vo Nguyen Giap","cityid":"5848e3787339a503efe9beeb","district":"Ngu Hanh Son","telephone":"","kname":"라이온 씨 호텔 다낭"}
{"_id":{"$oid":"5846621e8c37af5a77971965"},"reviews":[],"geometry":{"coordinate":{"latitude":16.061634182092256,"longitude":108.24635982513428}},"subcategoryid":"5843e3b225e3685babdd86f7","name":"Grand Tourane Hotel","address":"252 Vo Nguyen Giap, Phuoc My","cityid":"5848e3787339a503efe9beeb","district":"Son Tra","telephone":"","kname":"그랜드 투란 호텔"}
{"_id":{"$oid":"5846621e8c37af5a77971963"},"reviews":[],"geometry":{"coordinate":{"latitude":16.063019265632022,"longitude":108.21972599253058}},"subcategoryid":"5843e3b225e3685babdd86f7","name":"Bamboo Green Central Hotel","address":"158 Phan Chu Trinh","cityid":"5848e3787339a503efe9beeb","district":"Hai Chau","telephone":"","kname":"뱀부 그린 센트럴"}
{"_id":{"$oid":"5846621e8c37af5a77971968"},"reviews":[],"geometry":{"coordinate":{"latitude":16.0534629821777,"longitude":108.217697143555}},"subcategoryid":"5843e3b225e3685babdd86f7","name":"Tien Thinh Hotel Danang","address":"446-448 Hoang Dieu","cityid":"5848e3787339a503efe9beeb","district":"Hai Chau","telephone":"","kname":"티엔 틴 호텔 다낭"}
{"_id":{"$oid":"5846621e8c37af5a77971969"},"reviews":[],"geometry":{"coordinate":{"latitude":16.06587138,"longitude":108.2198626}},"subcategoryid":"5843e3b225e3685babdd86f7","name":"Da Nang Pacific Hotel","address":"92 Phan Chu Trinh","cityid":"5848e3787339a503efe9beeb","district":"Hai Chau","telephone":"","kname":""}
{"_id":{"$oid":"5846621e8c37af5a7797196a"},"reviews":[],"geometry":{"coordinate":{"latitude":16.0686302185059,"longitude":108.241439819336}},"subcategoryid":"5843e3b225e3685babdd86f7","name":"Ecodanang Hotel Danang","address":"36 Duong Dinh Nghe","cityid":"5848e3787339a503efe9beeb","district":"Son Tra","telephone":"","kname":"이코다낭 호텔 다낭"}
{"_id":{"$oid":"5846621e8c37af5a77971966"},"reviews":[],"geometry":{"coordinate":{"latitude":16.066857,"longitude":108.245102}},"subcategoryid":"5843e3b225e3685babdd86f7","name":"Bluesun Hotel","address":"230 Vo Nguyen Giap, Phuoc My","cityid":"5848e3787339a503efe9beeb","district":"Son Tra","telephone":"","kname":"블루선 호텔"}
{"_id":{"$oid":"5846621e8c37af5a77971967"},"reviews":[],"geometry":{"coordinate":{"latitude":16.0720653533936,"longitude":108.242393493652}},"subcategoryid":"5843e3b225e3685babdd86f7","name":"Olina Hotel Danang","address":"54 Pham Thieu","cityid":"5848e3787339a503efe9beeb","district":"Son Tra","telephone":"","kname":"올리나 호텔 다낭"}
{"_id":{"$oid":"5846621e8c37af5a7797196b"},"reviews":[],"geometry":{"coordinate":{"latitude":16.0518452103946,"longitude":108.246579766274}},"subcategoryid":"5843e3b225e3685babdd86f7","name":"Cicilia Hotel And Spa","address":"06-08-10 Do Ba, T20 Beach, Phuoc My","cityid":"5848e3787339a503efe9beeb","district":"","telephone":"","kname":"시칠리아 호텔 앤 스파"}
{"_id":{"$oid":"5846621e8c37af5a7797196e"},"reviews":[],"geometry":{"coordinate":{"latitude":16.0654567187382,"longitude":108.24374198913597}},"subcategoryid":"5843e3b225e3685babdd86f7","name":"Grand Sunrise Hotel Da Nang","address":"32 Ha Chuong, Phuoc My","cityid":"5848e3787339a503efe9beeb","district":"","telephone":"","kname":"그랜드 썬라이즈 호텔 다낭"}
{"_id":{"$oid":"5846621e8c37af5a7797196f"},"reviews":[],"geometry":{"coordinate":{"latitude":16.069117835825395,"longitude":108.22040517814457}},"subcategoryid":"5843e3b225e3685babdd86f7","name":"Danang Center Hotel","address":"35 Phan Chau Trinh","cityid":"5848e3787339a503efe9beeb","district":"Hai Chau","telephone":"","kname":"다낭 센터 호텔"}
{"_id":{"$oid":"5846621e8c37af5a7797196d"},"reviews":[],"geometry":{"coordinate":{"latitude":16.0413720050786,"longitude":108.248520679772}},"subcategoryid":"5843e3b225e3685babdd86f7","name":"Fansipan Danang Hotel","address":"424 Vo Nguyen Giap","cityid":"5848e3787339a503efe9beeb","district":"Ngu Hanh Son","telephone":"","kname":"판시판 다낭 호텔"}
{"_id":{"$oid":"5846621e8c37af5a77971970"},"reviews":[],"geometry":{"coordinate":{"latitude":16.07523039436654,"longitude":108.24370980262756}},"subcategoryid":"5843e3b225e3685babdd86f7","name":"Hamilton Oceanview Villa Da Nang","address":"05 Le Manh Trinh, Phuoc My","cityid":"5848e3787339a503efe9beeb","district":"","telephone":"","kname":"해밀턴 오션뷰 빌라 다낭"}
{"_id":{"$oid":"5846621e8c37af5a77971972"},"reviews":[],"geometry":{"coordinate":{"latitude":16.0659804574866,"longitude":108.222477436066}},"subcategoryid":"5843e3b225e3685babdd86f7","name":"Dai A Hotel","address":"51 Yen Bay","cityid":"5848e3787339a503efe9beeb","district":"Hai Chau","telephone":"","kname":"바우 빌라 다낭"}
{"_id":{"$oid":"5846621e8c37af5a77971971"},"reviews":[],"geometry":{"coordinate":{"latitude":16.0779342651367,"longitude":108.24405670166}},"subcategoryid":"5843e3b225e3685babdd86f7","name":"Bau Villa Danang","address":"19 Do The Chap, Phuoc My","cityid":"5848e3787339a503efe9beeb","district":"","telephone":"","kname":"바우 빌라 다낭"}
{"_id":{"$oid":"5846621e8c37af5a77971973"},"reviews":[],"geometry":{"coordinate":{"latitude":16.0737023528877,"longitude":108.241764307022}},"subcategoryid":"5843e3b225e3685babdd86f7","name":"Pearl Sea Hotel","address":"55 Losebystreet, An Hai Bac","cityid":"5848e3787339a503efe9beeb","district":"Son Tra","telephone":"","kname":"펄 씨 호텔"}
{"_id":{"$oid":"5846621e8c37af5a7797196c"},"reviews":[],"geometry":{"coordinate":{"latitude":16.077701073738396,"longitude":108.2288932800293}},"subcategoryid":"5843e3b225e3685babdd86f7","name":"Seventeen Saloon Hotel Danang","address":"72-77 Tran Hung Dao","cityid":"5848e3787339a503efe9beeb","district":"Son Tra","telephone":"","kname":"세븐틴 사룬 호텔 다낭"}
{"_id":{"$oid":"5846621e8c37af5a77971977"},"reviews":[],"geometry":{"coordinate":{"latitude":16.059062456872,"longitude":108.20825099945102}},"subcategoryid":"5843e3b225e3685babdd86f7","name":"Samdi Hotel","address":"203-205-207-209-211 Nguyen Van Linh","cityid":"5848e3787339a503efe9beeb","district":"Hai Chau","telephone":"","kname":"삼디 호텔"}
{"_id":{"$oid":"5846621e8c37af5a77971974"},"reviews":[],"geometry":{"coordinate":{"latitude":16.0435576200598,"longitude":108.247829675674}},"subcategoryid":"5843e3b225e3685babdd86f7","name":"Dung Hoa Hotel","address":"Lot 01-02 Vo Nguyen Giap, Phuoc My","cityid":"5848e3787339a503efe9beeb","district":"","telephone":"","kname":"둥 호아 호텔"}
{"_id":{"$oid":"5846621e8c37af5a77971975"},"reviews":[],"geometry":{"coordinate":{"latitude":16.0459371839285,"longitude":108.24490070342995}},"subcategoryid":"5843e3b225e3685babdd86f7","name":"My An Dong Hotel Da Nang","address":"55/2 Phan Tu, Phuoc My","cityid":"5848e3787339a503efe9beeb","district":"","telephone":"","kname":"마이 안 동 호텔 다낭"}
{"_id":{"$oid":"5846621e8c37af5a77971976"},"reviews":[],"geometry":{"coordinate":{"latitude":16.0399310262879,"longitude":108.24604332447}},"subcategoryid":"5843e3b225e3685babdd86f7","name":"Gold Coast Hotel","address":"27 Ho Xuan Huong, Phuoc My","cityid":"5848e3787339a503efe9beeb","district":"","telephone":"","kname":"골드 코스트 호텔"}
{"_id":{"$oid":"5846621e8c37af5a77971978"},"reviews":[],"geometry":{"coordinate":{"latitude":16.0536953,"longitude":108.2096156}},"subcategoryid":"5843e3b225e3685babdd86f7","name":"Quan Quan Hotel","address":"79 Nguyen Huu Tho","cityid":"5848e3787339a503efe9beeb","district":"Hai Chau","telephone":"","kname":"쿠안 쿠안 호텔"}
{"_id":{"$oid":"5846621e8c37af5a77971979"},"reviews":[],"geometry":{"coordinate":{"latitude":16.0737457275391,"longitude":108.240951538086}},"subcategoryid":"5843e3b225e3685babdd86f7","name":"Dana Sea Hotel","address":"Lot 23, 25 Loseby, Phuoc My","cityid":"5848e3787339a503efe9beeb","district":"","telephone":"","kname":"다나 씨 호텔"}
{"_id":{"$oid":"5846621e8c37af5a7797197d"},"reviews":[],"geometry":{"coordinate":{"latitude":16.055039183531473,"longitude":108.24594140052795}},"subcategoryid":"5843e3b225e3685babdd86f7","name":"New Hotel","address":"No 02, Phan Liem, My An","cityid":"5848e3787339a503efe9beeb","district":"Ngu Hanh Son","telephone":"","kname":"뉴 호텔"}
{"_id":{"$oid":"5846621e8c37af5a7797197c"},"reviews":[],"geometry":{"coordinate":{"latitude":16.0741590166048,"longitude":108.22346496582}},"subcategoryid":"5843e3b225e3685babdd86f7","name":"Song Thu Hotel","address":"30-32-34 Tran Phu","cityid":"5848e3787339a503efe9beeb","district":"Hai Chau","telephone":"","kname":"송 투 호텔"}
{"_id":{"$oid":"5846621e8c37af5a7797197b"},"reviews":[],"geometry":{"coordinate":{"latitude":16.122038,"longitude":108.31017}},"subcategoryid":"5843e3b225e3685babdd86f7","name":"Intercontinental Danang Sun Peninsula Resort","address":"Bai Bac, Son Tra Peninsula, Tho Quang","cityid":"5848e3787339a503efe9beeb","district":"","telephone":"","kname":"인터콘티넨탈 다낭 선 페닌술라 리조트"}
{"_id":{"$oid":"5846621e8c37af5a7797197e"},"reviews":[],"geometry":{"coordinate":{"latitude":16.0484886169434,"longitude":108.248100280762}},"subcategoryid":"5843e3b225e3685babdd86f7","name":"Starlet Hotel Danang","address":"31-32 Ngo Thi Sy","cityid":"5848e3787339a503efe9beeb","district":"Ngu Hanh Son","telephone":"","kname":"스탈렛 호텔 다낭"}
{"_id":{"$oid":"5846621e8c37af5a77971980"},"reviews":[],"geometry":{"coordinate":{"latitude":16.079,"longitude":108.22888255119324}},"subcategoryid":"5843e3b225e3685babdd86f7","name":"The Blossom City Hotel","address":"147-149 Tran Hung Dao","cityid":"5848e3787339a503efe9beeb","district":"Son Tra","telephone":"","kname":"더 블로섬 시티 호텔"}
{"_id":{"$oid":"5846621e8c37af5a7797197f"},"reviews":[],"geometry":{"coordinate":{"latitude":16.067190170288086,"longitude":108.22481536865234}},"subcategoryid":"5843e3b225e3685babdd86f7","name":"Hoang Linh Hotel Da Nang","address":"142 Bach Dang","cityid":"5848e3787339a503efe9beeb","district":"Hai Chau","telephone":"","kname":"호앙 린 호텔 다 낭"}
{"_id":{"$oid":"5846621e8c37af5a7797197a"},"reviews":[],"geometry":{"coordinate":{"latitude":16.057865185335704,"longitude":108.21699500083923}},"subcategoryid":"5843e3b225e3685babdd86f7","name":"Quoc Cuong Ii Hotel Danang","address":"324-326 Hoang Dieu","cityid":"5848e3787339a503efe9beeb","district":"Hai Chau","telephone":"","kname":"쿠옥 쿠옹 II 호텔 다낭"}
{"_id":{"$oid":"5846621e8c37af5a77971982"},"reviews":[],"geometry":{"coordinate":{"latitude":16.0707894208178,"longitude":108.236636146903}},"subcategoryid":"5843e3b225e3685babdd86f7","name":"Nhu Minh Hotel Danang","address":"Lot G7-G8 Pham Van Dong, Phuoc My","cityid":"5848e3787339a503efe9beeb","district":"","telephone":"","kname":"누 민 호텔 다낭"}
{"_id":{"$oid":"5846621e8c37af5a77971981"},"reviews":[],"geometry":{"coordinate":{"latitude":16.04886544233625,"longitude":108.2483848929405}},"subcategoryid":"5843e3b225e3685babdd86f7","name":"Mango Hotel","address":"50 An Thuong","cityid":"5848e3787339a503efe9beeb","district":"Ngu Hanh Son","telephone":"","kname":"망고 호텔"}
{"_id":{"$oid":"5846621e8c37af5a77971985"},"reviews":[],"geometry":{"coordinate":{"latitude":16.070702292956,"longitude":108.242819309235}},"subcategoryid":"5843e3b225e3685babdd86f7","name":"Trung Duong Da Nang Beach Hotel","address":"170 Ho Nghinh","cityid":"5848e3787339a503efe9beeb","district":"Son Tra","telephone":"","kname":"쭝드엉 다낭 비치 호텔"}
{"_id":{"$oid":"5846621e8c37af5a77971986"},"reviews":[],"geometry":{"coordinate":{"latitude":16.0504842145982,"longitude":108.24638128280594}},"subcategoryid":"5843e3b225e3685babdd86f7","name":"Homestay Sea Kite","address":"Lot 21, An Thuong 32, My An","cityid":"5848e3787339a503efe9beeb","district":"Ngu Hanh Son","telephone":"","kname":"홈스테이 씨 카이트"}
{"_id":{"$oid":"5846621e8c37af5a77971988"},"reviews":[],"geometry":{"coordinate":{"latitude":16.0501800513872,"longitude":108.222059011459}},"subcategoryid":"5843e3b225e3685babdd86f7","name":"Minh Toan Hotel","address":"162 - 2/9 Street","cityid":"5848e3787339a503efe9beeb","district":"Hai Chau","telephone":"","kname":"민 토안 호텔"}
{"_id":{"$oid":"5846621e8c37af5a77971987"},"reviews":[],"geometry":{"coordinate":{"latitude":16.05543771362023,"longitude":108.22201287759526}},"subcategoryid":"5843e3b225e3685babdd86f7","name":"Red Diamond Hotel","address":"21-23 Le Quy Don, Binh Thuan","cityid":"5848e3787339a503efe9beeb","district":"Hai Chau","telephone":"","kname":"레드 다이아몬드 호텔"}
{"_id":{"$oid":"5846621e8c37af5a77971984"},"reviews":[],"geometry":{"coordinate":{"latitude":16.067384881795572,"longitude":108.2201540353708}},"subcategoryid":"5843e3b225e3685babdd86f7","name":"Xuan Hung Hotel","address":"56 Phan Chu Trinh","cityid":"5848e3787339a503efe9beeb","district":"Hai Chau","telephone":"","kname":"수안흥 호텔"}
{"_id":{"$oid":"5846621e8c37af5a7797198a"},"reviews":[],"geometry":{"coordinate":{"latitude":16.09272487501181,"longitude":108.25122937560081}},"subcategoryid":"5843e3b225e3685babdd86f7","name":"Dan Oasis Hotel And Apartment","address":"A2.3 Hoang Sa, Tho Quang","cityid":"5848e3787339a503efe9beeb","district":"Son Tra","telephone":"","kname":"댄 오아시스 호텔 앤 아파트먼트"}
{"_id":{"$oid":"5846621e8c37af5a7797198b"},"reviews":[],"geometry":{"coordinate":{"latitude":16.0659247660693,"longitude":108.224289759993}},"subcategoryid":"5843e3b225e3685babdd86f7","name":"Dana Pearl 2 Hotel","address":"186 Bach Dang","cityid":"5848e3787339a503efe9beeb","district":"Hai Chau","telephone":"","kname":"다나 펄 2 호텔"}
{"_id":{"$oid":"5846621e8c37af5a77971989"},"reviews":[],"geometry":{"coordinate":{"latitude":16.04935,"longitude":108.245823}},"subcategoryid":"5843e3b225e3685babdd86f7","name":"Champa Hotel Danang","address":"Lot 134 Le Quang Dao","cityid":"5848e3787339a503efe9beeb","district":"Ngu Hanh Son","telephone":"","kname":"참파 호텔 다낭"}
{"_id":{"$oid":"5846621e8c37af5a77971983"},"reviews":[],"geometry":{"coordinate":{"latitude":16.0546818,"longitude":108.2446744}},"subcategoryid":"5843e3b225e3685babdd86f7","name":"Grand Sunrise 2 Hotel","address":"5 Phan Liem, Phuoc My","cityid":"5848e3787339a503efe9beeb","district":"Ngu Hanh Son","telephone":"","kname":"그랜드 선라이즈 2 호텔"}
{"_id":{"$oid":"5846621e8c37af5a7797198c"},"reviews":[],"geometry":{"coordinate":{"latitude":16.0677441305694,"longitude":108.224860206246}},"subcategoryid":"5843e3b225e3685babdd86f7","name":"New Moon Hotel Danang","address":"126 Bach Dang","cityid":"5848e3787339a503efe9beeb","district":"Hai Chau","telephone":"","kname":"뉴 문 호텔 다낭"}
{"_id":{"$oid":"5846621e8c37af5a7797198d"},"reviews":[],"geometry":{"coordinate":{"latitude":16.0666093547067,"longitude":108.213411569595}},"subcategoryid":"5843e3b225e3685babdd86f7","name":"Vinh Trung Plaza Apartments And Hotel","address":"255-257 Hung Vuong","cityid":"5848e3787339a503efe9beeb","district":"Hai Chau","telephone":"","kname":"빈 트룽 프라자 아파트먼트 앤 호텔"}
{"_id":{"$oid":"5846621e8c37af5a7797198e"},"reviews":[],"geometry":{"coordinate":{"latitude":16.070079,"longitude":108.235757}},"subcategoryid":"5843e3b225e3685babdd86f7","name":"Princess Hotel Danang","address":"Lot E2-20 Phan Boi","cityid":"5848e3787339a503efe9beeb","district":"Son Tra","telephone":"","kname":"프린세스 호텔 다낭"}
{"_id":{"$oid":"5846621e8c37af5a7797198f"},"reviews":[],"geometry":{"coordinate":{"latitude":16.0645731638827,"longitude":108.223992884159}},"subcategoryid":"5843e3b225e3685babdd86f7","name":"Rainbow Hotel","address":"220 Bach Dang","cityid":"5848e3787339a503efe9beeb","district":"Hai Chau","telephone":"","kname":"레인보우 호텔"}
{"_id":{"$oid":"5846621e8c37af5a77971990"},"reviews":[],"geometry":{"coordinate":{"latitude":15.974558,"longitude":108.282425}},"subcategoryid":"5843e3b225e3685babdd86f7","name":"Ocean Apartment A350","address":"A350 - Ocean Villa - Truong Sa, Hoa Hai","cityid":"5848e3787339a503efe9beeb","district":"","telephone":"","kname":"오션 아파트 A350"}
{"_id":{"$oid":"5846621e8c37af5a77971991"},"reviews":[],"geometry":{"coordinate":{"latitude":16.068782691562774,"longitude":108.24342280626297}},"subcategoryid":"5843e3b225e3685babdd86f7","name":"Thalassa Boutique Hotel","address":"35 Duong Dinh Nghe, Phuoc My","cityid":"5848e3787339a503efe9beeb","district":"","telephone":"","kname":"타라사 부티크 호텔"}
{"_id":{"$oid":"5846621e8c37af5a77971992"},"reviews":[],"geometry":{"coordinate":{"latitude":16.019250931200975,"longitude":108.26096713542938}},"subcategoryid":"5843e3b225e3685babdd86f7","name":"Hyatt Regency Danang Villa","address":"05 Truong Sa, Hoa Hai","cityid":"5848e3787339a503efe9beeb","district":"Ngu Hanh Son","telephone":"","kname":"Hyatt Regency Danang Villa"}
{"_id":{"$oid":"5846621e8c37af5a77971993"},"reviews":[],"geometry":{"coordinate":{"latitude":16.069793,"longitude":108.222904}},"subcategoryid":"5843e3b225e3685babdd86f7","name":"Fulmar Hotel Danang","address":"11 Yen Bai","cityid":"5848e3787339a503efe9beeb","district":"Hai Chau","telephone":"","kname":"풀마 호텔 다낭"}
{"_id":{"$oid":"5846621e8c37af5a77971994"},"reviews":[],"geometry":{"coordinate":{"latitude":16.0298333,"longitude":108.25423869999997}},"subcategoryid":"5843e3b225e3685babdd86f7","name":"Serene Danang Hotel","address":"274 Vo Nguyen Giap, My An","cityid":"5848e3787339a503efe9beeb","district":"Ngu Hanh Son","telephone":"","kname":"서린 다낭 호텔"}
{"_id":{"$oid":"5846621e8c37af5a77971995"},"reviews":[],"geometry":{"coordinate":{"latitude":16.0493679046631,"longitude":108.208976745605}},"subcategoryid":"5843e3b225e3685babdd86f7","name":"Queen Hotel Danang","address":"41 Nguyen Huu Tho","cityid":"5848e3787339a503efe9beeb","district":"Hai Chau","telephone":"","kname":"퀸 호텔 다낭"}
{"_id":{"$oid":"5846621e8c37af5a77971996"},"reviews":[],"geometry":{"coordinate":{"latitude":16.0770888}},"subcategoryid":"5843e3b225e3685babdd86f7","name":"Danang Han River Hotel","address":"14 Ly Tu Trong, Xuan Ha","cityid":"5848e3787339a503efe9beeb","district":"","telephone":"","kname":"다낭 한 리버 호텔"}
{"_id":{"$oid":"5846621e8c37af5a77971997"},"reviews":[],"geometry":{"coordinate":{"latitude":16.06590635573649,"longitude":108.24518887326121}},"subcategoryid":"5843e3b225e3685babdd86f7","name":"Seafront Hotel Da Nang","address":"240 Vo Nguyen Giap, Phuoc My","cityid":"5848e3787339a503efe9beeb","district":"","telephone":"","kname":"씨프론트 호텔 다낭"}
{"_id":{"$oid":"5846621e8c37af5a77971998"},"reviews":[],"geometry":{"coordinate":{"latitude":16.066274,"longitude":108.243257}},"subcategoryid":"5843e3b225e3685babdd86f7","name":"Kingdom Da Nang Hotel","address":"234 Ho Nghinh, Phuoc My","cityid":"5848e3787339a503efe9beeb","district":"","telephone":"","kname":"킹덤 다낭 호텔"}
{"_id":{"$oid":"5846621e8c37af5a77971999"},"reviews":[],"geometry":{"coordinate":{"latitude":16.0497512817383,"longitude":108.247505187988}},"subcategoryid":"5843e3b225e3685babdd86f7","name":"Gold Hotel Ii Danang","address":"04-05 Hoang Ke Viem, My Khe Beach","cityid":"5848e3787339a503efe9beeb","district":"","telephone":"","kname":"골드 호텔 II 다낭"}
{"_id":{"$oid":"5846621e8c37af5a7797199a"},"reviews":[],"geometry":{"coordinate":{"latitude":16.04723376844591,"longitude":108.22726249694824}},"subcategoryid":"5843e3b225e3685babdd86f7","name":"Water Lily Villa","address":"Lot A5-09, Zone Of The Villas Of Green Island","cityid":"5848e3787339a503efe9beeb","district":"Hai Chau","telephone":"","kname":"워터 릴리 빌라"}
{"_id":{"$oid":"5846621e8c37af5a7797199c"},"reviews":[],"geometry":{"coordinate":{"latitude":16.039825014690653,"longitude":108.21203827857971}},"subcategoryid":"5843e3b225e3685babdd86f7","name":"Amanda Hotel","address":"Lot A2-A2B, 30/4 Street","cityid":"5848e3787339a503efe9beeb","district":"Hai Chau","telephone":"","kname":"아만다 호텔"}
{"_id":{"$oid":"5846621e8c37af5a7797199b"},"reviews":[],"geometry":{"coordinate":{"latitude":16.03728490840576,"longitude":108.2526683807373}},"subcategoryid":"5843e3b225e3685babdd86f7","name":"Church D5 Diamond Villa","address":"D5, Furama Villas Area, 01 Vo Nguyen Giap, Hoa Hai","cityid":"5848e3787339a503efe9beeb","district":"","telephone":"","kname":"처치 D5 다이아몬드 빌라"}
{"_id":{"$oid":"5846621e8c37af5a7797199d"},"reviews":[],"geometry":{"coordinate":{"latitude":16.0686089374447,"longitude":108.223935887218}},"subcategoryid":"5843e3b225e3685babdd86f7","name":"Evelyn Hotel","address":"115 Tran Phu","cityid":"5848e3787339a503efe9beeb","district":"Hai Chau","telephone":"","kname":"에블린 호텔"}
{"_id":{"$oid":"5846621e8c37af5a7797199e"},"reviews":[],"geometry":{"coordinate":{"latitude":16.05549527953948,"longitude":108.2427978515625}},"subcategoryid":"5843e3b225e3685babdd86f7","name":"Bin Star Hotel  Danang","address":"K184/20 Nguyen Duy Hieu, Phuoc My","cityid":"5848e3787339a503efe9beeb","district":"","telephone":"","kname":"빈 스타 호텔 다낭"}
{"_id":{"$oid":"5846621e8c37af5a7797199f"},"reviews":[],"geometry":{"coordinate":{"latitude":16.061949282195453,"longitude":108.23838293552399}},"subcategoryid":"5843e3b225e3685babdd86f7","name":"Galavina Danang Hotel","address":"Lot 05-06-07 B2-12 Vo Van Kiet, Phuoc My","cityid":"5848e3787339a503efe9beeb","district":"","telephone":"","kname":"갈라비나 다낭 호텔"}
{"_id":{"$oid":"5846621e8c37af5a779719a0"},"reviews":[],"geometry":{"coordinate":{"latitude":16.068681716918945,"longitude":108.2405014038086}},"subcategoryid":"5843e3b225e3685babdd86f7","name":"Hoang Sa Hotel Danang","address":"54-56 Duong Dinh Nghe","cityid":"5848e3787339a503efe9beeb","district":"Son Tra","telephone":"","kname":"호앙 사 호텔 다낭"}
{"_id":{"$oid":"5846621e8c37af5a779719a3"},"reviews":[],"geometry":{"coordinate":{"latitude":16.063032,"longitude":108.19209}},"subcategoryid":"5843e3b225e3685babdd86f7","name":"Dai Long Hotel Da Nang","address":"190-192-194 Ha Huy Tap, Thanh Khe","cityid":"5848e3787339a503efe9beeb","district":"Hai Chau","telephone":"","kname":"다이 롱 호텔 다낭"}
{"_id":{"$oid":"5846621e8c37af5a779719a2"},"reviews":[],"geometry":{"coordinate":{"latitude":16.06841355700983,"longitude":108.2431411743164}},"subcategoryid":"5843e3b225e3685babdd86f7","name":"Legend Hotel Danang","address":"169 Ho Nghinh, Phuoc My","cityid":"5848e3787339a503efe9beeb","district":"","telephone":"","kname":"레전드 호텔 다낭"}
{"_id":{"$oid":"5846621e8c37af5a779719a4"},"reviews":[],"geometry":{"coordinate":{"latitude":16.059018960857735,"longitude":108.20997817441821}},"subcategoryid":"5843e3b225e3685babdd86f7","name":"Thai Duong Hotel Danang","address":"46 Dao Duy Anh, Thanh Khe","cityid":"5848e3787339a503efe9beeb","district":"Hai Chau","telephone":"","kname":"타이 두옹 호텔 다낭"}
{"_id":{"$oid":"5846621e8c37af5a779719a5"},"reviews":[],"geometry":{"coordinate":{"latitude":16.0658149719238,"longitude":108.243431091309}},"subcategoryid":"5843e3b225e3685babdd86f7","name":"Angel Hotel Danang","address":"189-189 Ho Nghinh","cityid":"5848e3787339a503efe9beeb","district":"Son Tra","telephone":"","kname":"앤젤 호텔 다낭"}
{"_id":{"$oid":"5846621e8c37af5a779719a6"},"reviews":[],"geometry":{"coordinate":{"latitude":16.065357208252,"longitude":108.24291229248}},"subcategoryid":"5843e3b225e3685babdd86f7","name":"Luna Diamond Hotel Danang","address":"242-244 Ho Nghinh","cityid":"5848e3787339a503efe9beeb","district":"Son Tra","telephone":"","kname":"루나 다이아몬드 호텔 - 다낭"}
{"_id":{"$oid":"5846621e8c37af5a779719a8"},"reviews":[],"geometry":{"coordinate":{"latitude":16.0669701964764,"longitude":108.223904371262}},"subcategoryid":"5843e3b225e3685babdd86f7","name":"Cherie Hotel Danang","address":"155 Tran Phu","cityid":"5848e3787339a503efe9beeb","district":"Hai Chau","telephone":"","kname":"Chérie Hotel Danang"}
{"_id":{"$oid":"5846621e8c37af5a779719a7"},"reviews":[],"geometry":{"coordinate":{"latitude":16.075450917198744,"longitude":108.24307143688202}},"subcategoryid":"5843e3b225e3685babdd86f7","name":"Jay Grand Hotel","address":"81 Ho Nghinh, Phuoc My","cityid":"5848e3787339a503efe9beeb","district":"Son Tra","telephone":"","kname":"제이 그랜드 호텔"}
{"_id":{"$oid":"5846621e8c37af5a779719a1"},"reviews":[],"geometry":{"coordinate":{"latitude":16.0703672319067,"longitude":108.223684430122}},"subcategoryid":"5843e3b225e3685babdd86f7","name":"Hoa Viet Hotel","address":"8 Phan Dinh Phung","cityid":"5848e3787339a503efe9beeb","district":"Hai Chau","telephone":"","kname":"호아 비엣 호텔"}
{"_id":{"$oid":"5846621e8c37af5a779719a9"},"reviews":[],"geometry":{"coordinate":{"latitude":16.078218460083,"longitude":108.217704772949}},"subcategoryid":"5843e3b225e3685babdd86f7","name":"A25 Hotel","address":"137 Nguyen Du, Xuan Ha","cityid":"5848e3787339a503efe9beeb","district":"","telephone":"","kname":"A25 호텔"}
{"_id":{"$oid":"5846621e8c37af5a779719ab"},"reviews":[],"geometry":{"coordinate":{"latitude":16.0686558343586,"longitude":108.242980241776}},"subcategoryid":"5843e3b225e3685babdd86f7","name":"Atlantic Hotel","address":"151 Ho Nghinh","cityid":"5848e3787339a503efe9beeb","district":"Son Tra","telephone":"","kname":"아틀란틱 호텔"}
{"_id":{"$oid":"5846621e8c37af5a779719aa"},"reviews":[],"geometry":{"coordinate":{"latitude":16.0694283,"longitude":108.2211412}},"subcategoryid":"5843e3b225e3685babdd86f7","name":"Danang Backpackers Hostel","address":"106 Nguyen Chi Thanh","cityid":"5848e3787339a503efe9beeb","district":"Hai Chau","telephone":"","kname":"다낭 백패커스 호스텔"}
{"_id":{"$oid":"5846621e8c37af5a779719ad"},"reviews":[],"geometry":{"coordinate":{"latitude":16.0668468475342,"longitude":108.224731445313}},"subcategoryid":"5843e3b225e3685babdd86f7","name":"Phuong Tam Hotel","address":"174 Bach Dang","cityid":"5848e3787339a503efe9beeb","district":"Hai Chau","telephone":"","kname":"프엉탐 호텔"}
{"_id":{"$oid":"5846621e8c37af5a779719ae"},"reviews":[],"geometry":{"coordinate":{"latitude":16.062918421307995,"longitude":108.21863651275635}},"subcategoryid":"5843e3b225e3685babdd86f7","name":"Golden Beach Hotel Da Nang","address":"109 Hoang Van Thu","cityid":"5848e3787339a503efe9beeb","district":"Hai Chau","telephone":"","kname":"골든 비치 호텔 다낭"}
{"_id":{"$oid":"5846621e8c37af5a779719af"},"reviews":[],"geometry":{"coordinate":{"latitude":16.06442153610181,"longitude":108.24471160769463}},"subcategoryid":"5843e3b225e3685babdd86f7","name":"Lan Nhi Hotel","address":"66 Ha Bong, Phuoc My","cityid":"5848e3787339a503efe9beeb","district":"","telephone":"","kname":"란 응하이 호텔"}
{"_id":{"$oid":"5846621e8c37af5a779719b0"},"reviews":[],"geometry":{"coordinate":{"latitude":16.0495536799217,"longitude":108.24555516243}},"subcategoryid":"5843e3b225e3685babdd86f7","name":"Hoang Quan Hotel","address":"51 Hoang Ke Viem, Phuoc My","cityid":"5848e3787339a503efe9beeb","district":"","telephone":"","kname":"호앙 쿠안 호텔"}
{"_id":{"$oid":"5846621e8c37af5a779719b1"},"reviews":[],"geometry":{"coordinate":{"latitude":16.07417856097729,"longitude":108.24302744858869}},"subcategoryid":"5843e3b225e3685babdd86f7","name":"Mai Boutique Hotel","address":"115 Ho Nghinh","cityid":"5848e3787339a503efe9beeb","district":"Son Tra","telephone":"","kname":"마이 부티크 호텔"}
{"_id":{"$oid":"5846621e8c37af5a779719b2"},"reviews":[],"geometry":{"coordinate":{"latitude":16.0667227621905,"longitude":108.24432134628296}},"subcategoryid":"5843e3b225e3685babdd86f7","name":"Tay Bac Hotel Da Nang","address":"04 Ha Bong, Phuoc My","cityid":"5848e3787339a503efe9beeb","district":"","telephone":"","kname":"타이 박 호텔 다낭"}
{"_id":{"$oid":"5846621e8c37af5a779719ac"},"reviews":[],"geometry":{"coordinate":{"latitude":16.0740473351318,"longitude":108.228895857465}},"subcategoryid":"5843e3b225e3685babdd86f7","name":"Varna Hotel Da Nang","address":"323 Tran Hung Dao","cityid":"5848e3787339a503efe9beeb","district":"Son Tra","telephone":"","kname":"바르나 호텔 다낭"}
{"_id":{"$oid":"5846621e8c37af5a779719b3"},"reviews":[],"geometry":{"coordinate":{"latitude":16.070629119873,"longitude":108.237800598145}},"subcategoryid":"5843e3b225e3685babdd86f7","name":"Vian Hotel Danang","address":"124 Pham Van Dong, Phuoc My","cityid":"5848e3787339a503efe9beeb","district":"","telephone":"","kname":"비안 호텔 다낭"}
{"_id":{"$oid":"5846621e8c37af5a779719b4"},"reviews":[],"geometry":{"coordinate":{"latitude":16.060298,"longitude":108.245424}},"subcategoryid":"5843e3b225e3685babdd86f7","name":"Sunsea Hotel","address":"60 Lam Hoanh, My Khe Beach, Phuoc My","cityid":"5848e3787339a503efe9beeb","district":"","telephone":"","kname":"선 시 호텔"}
{"_id":{"$oid":"5846621e8c37af5a779719b5"},"reviews":[],"geometry":{"coordinate":{"latitude":16.0716920084513,"longitude":108.22263300418899}},"subcategoryid":"5843e3b225e3685babdd86f7","name":"Ngoi Nha Xanh Hotel","address":"04 Le Duan","cityid":"5848e3787339a503efe9beeb","district":"Hai Chau","telephone":"","kname":"응오이 나 산 호텔"}
{"_id":{"$oid":"5846621e8c37af5a779719b6"},"reviews":[],"geometry":{"coordinate":{"latitude":16.0953807830811,"longitude":108.146423339844}},"subcategoryid":"5843e3b225e3685babdd86f7","name":"The Nature Villas \u0026 Resort","address":"Nguyen Tat Thanh, Xuan Ha","cityid":"5848e3787339a503efe9beeb","district":"Lien Chieu","telephone":"","kname":"더 네이처 빌라 앤 리조트"}
{"_id":{"$oid":"5846621e8c37af5a779719b9"},"reviews":[],"geometry":{"coordinate":{"latitude":15.9954076435471,"longitude":108.26788187027}},"subcategoryid":"5843e3b225e3685babdd86f7","name":"Ocean Villa Idc White House Da Nang","address":"Villa M04, The Ocean Villas, Truong Sa, Hoa Hai","cityid":"5848e3787339a503efe9beeb","district":"","telephone":"","kname":"IDC 화이트 하우스 오션 빌라"}
{"_id":{"$oid":"5846621e8c37af5a779719b8"},"reviews":[],"geometry":{"coordinate":{"latitude":16.0732229649059,"longitude":108.241869807243}},"subcategoryid":"5843e3b225e3685babdd86f7","name":"Sea Wonder Hotel","address":"57 Nguyen Cong Sau, An Cu 3","cityid":"5848e3787339a503efe9beeb","district":"Son Tra","telephone":"","kname":"씨 원더 호텔"}
{"_id":{"$oid":"5846621e8c37af5a779719ba"},"reviews":[],"geometry":{"coordinate":{"latitude":16.0754751504448,"longitude":108.242808580399}},"subcategoryid":"5843e3b225e3685babdd86f7","name":"Danaciti Hotel","address":"80 Dong Kinh Nghia Thuc, An Hai Bac","cityid":"5848e3787339a503efe9beeb","district":"Son Tra","telephone":"","kname":""}
{"_id":{"$oid":"5846621e8c37af5a779719bb"},"reviews":[],"geometry":{"coordinate":{"latitude":16.05596465282632,"longitude":108.24540983561747}},"subcategoryid":"5843e3b225e3685babdd86f7","name":"Richico Apartment And Hotel","address":"176-178 Nguyen Van Thoai, Phuoc My","cityid":"5848e3787339a503efe9beeb","district":"","telephone":"","kname":"리치코 아파트먼트 앤 호텔"}
{"_id":{"$oid":"5846621e8c37af5a779719bc"},"reviews":[],"geometry":{"coordinate":{"latitude":16.079861440611083,"longitude":108.21109092232291}},"subcategoryid":"5843e3b225e3685babdd86f7","name":"Cong Doan Thanh Binh Hotel Danang","address":"02 Ong Ich Khiem","cityid":"5848e3787339a503efe9beeb","district":"Hai Chau","telephone":"","kname":"콩 도안 탄 빈 호텔 다낭"}
{"_id":{"$oid":"5846621e8c37af5a779719bd"},"reviews":[],"geometry":{"coordinate":{"latitude":16.054708,"longitude":108.24443}},"subcategoryid":"5843e3b225e3685babdd86f7","name":"Valencia Hotel","address":"Lo 61-62 Phan Liem, My An","cityid":"5848e3787339a503efe9beeb","district":"Ngu Hanh Son","telephone":"","kname":"Valencia Hotel"}
{"_id":{"$oid":"5846621e8c37af5a779719be"},"reviews":[],"geometry":{"coordinate":{"latitude":16.0424314658431,"longitude":108.24949264526401}},"subcategoryid":"5843e3b225e3685babdd86f7","name":"Golden Lotus Diamond Villa Da Nang","address":"D6, Furama Villas Area, Vo Nguyen Giap, Phuoc My","cityid":"5848e3787339a503efe9beeb","district":"","telephone":"","kname":"골든 로터스 다이아몬드 빌라 다낭"}
{"_id":{"$oid":"5846621e8c37af5a779719b7"},"reviews":[],"geometry":{"coordinate":{"latitude":16.0662612915039,"longitude":108.220306396484}},"subcategoryid":"5843e3b225e3685babdd86f7","name":"Orient (Phuong Dong) Hotel","address":"97 Phan Chu Trinh","cityid":"5848e3787339a503efe9beeb","district":"Hai Chau","telephone":"","kname":"오리엔트 (푸옹 동) 호텔"}
{"_id":{"$oid":"5846621e8c37af5a779719c0"},"reviews":[],"geometry":{"coordinate":{"latitude":16.055368600847,"longitude":108.245246982769}},"subcategoryid":"5843e3b225e3685babdd86f7","name":"San San Hotel","address":"54 An Thuong 26, Phuoc My","cityid":"5848e3787339a503efe9beeb","district":"","telephone":"","kname":"산 피타 호텔"}
{"_id":{"$oid":"5846621e8c37af5a779719bf"},"reviews":[],"geometry":{"coordinate":{"latitude":16.054618726065,"longitude":108.24468612670898}},"subcategoryid":"5843e3b225e3685babdd86f7","name":"Golden Star Hotel","address":"Block 30B2-12 Phan Liem, Phuoc My","cityid":"5848e3787339a503efe9beeb","district":"","telephone":"","kname":"골든 스타 호텔"}
{"_id":{"$oid":"5846621e8c37af5a779719c3"},"reviews":[],"geometry":{"coordinate":{"latitude":16.0765648299562,"longitude":108.216176390648}},"subcategoryid":"5843e3b225e3685babdd86f7","name":"Big Home Hotel Da Nang","address":"191 Dong Da","cityid":"5848e3787339a503efe9beeb","district":"Hai Chau","telephone":"","kname":"빅 홈 호텔 다 낭"}
{"_id":{"$oid":"5846621e8c37af5a779719c4"},"reviews":[],"geometry":{"coordinate":{"latitude":16.0678362140532,"longitude":108.21731150150299}},"subcategoryid":"5843e3b225e3685babdd86f7","name":"Thu Do Hotel Da Nang","address":"125-127 Hung Vuong","cityid":"5848e3787339a503efe9beeb","district":"Hai Chau","telephone":"","kname":"투도 호텔 다낭"}
{"_id":{"$oid":"5846621e8c37af5a779719c5"},"reviews":[],"geometry":{"coordinate":{"latitude":16.0707530975342,"longitude":108.23560333252}},"subcategoryid":"5843e3b225e3685babdd86f7","name":"Bien Vang Hotel Danang","address":"C1, 04-05 Pham Van Dong, Phuoc My","cityid":"5848e3787339a503efe9beeb","district":"","telephone":"","kname":"비엔 방 호텔 다낭"}
{"_id":{"$oid":"5846621e8c37af5a779719c2"},"reviews":[],"geometry":{"coordinate":{"latitude":16.0652793893897,"longitude":108.24441790580795}},"subcategoryid":"5843e3b225e3685babdd86f7","name":"Green House Hotel","address":"22-24 Ha Chuong","cityid":"5848e3787339a503efe9beeb","district":"Son Tra","telephone":"","kname":"그린 하우스 호텔"}
{"_id":{"$oid":"5846621e8c37af5a779719c1"},"reviews":[],"geometry":{"coordinate":{"latitude":16.0724961486647,"longitude":108.24309825897194}},"subcategoryid":"5843e3b225e3685babdd86f7","name":"Bay Sydney Hotel","address":"199 Ho Nghinh, Phuoc My","cityid":"5848e3787339a503efe9beeb","district":"","telephone":"","kname":"베이 시드니 호텔"}
{"_id":{"$oid":"5846621e8c37af5a779719c6"},"reviews":[],"geometry":{"coordinate":{"latitude":16.06357423068604,"longitude":108.24480950832367}},"subcategoryid":"5843e3b225e3685babdd86f7","name":"Royal Family Hotel Da Nang","address":"No. 39, Vo Van Kiet, Phuoc My Block","cityid":"5848e3787339a503efe9beeb","district":"Son Tra","telephone":"","kname":"로열 패밀리 호텔 다낭"}
{"_id":{"$oid":"5846621e8c37af5a779719c8"},"reviews":[],"geometry":{"coordinate":{"latitude":16.0427201743692,"longitude":108.248162269592}},"subcategoryid":"5843e3b225e3685babdd86f7","name":"Kara Beachside Guesthouse","address":"354 Vo Nguyen Giap","cityid":"5848e3787339a503efe9beeb","district":"Ngu Hanh Son","telephone":"","kname":"카라 비치사이드 게스트하우스"}
{"_id":{"$oid":"5846621e8c37af5a779719c9"},"reviews":[],"geometry":{"coordinate":{"latitude":16.06277,"longitude":108.24615}},"subcategoryid":"5843e3b225e3685babdd86f7","name":"Grand Tourane Hotel","address":"252 Vo Nguyen Giap, Phuoc My","cityid":"5848e3787339a503efe9beeb","district":"Son Tra","telephone":"","kname":"그랜드 투란 호텔"}
{"_id":{"$oid":"5846621e8c37af5a779719c7"},"reviews":[],"geometry":{"coordinate":{"latitude":16.08234713,"longitude":108.2212043}},"subcategoryid":"5843e3b225e3685babdd86f7","name":"Saigon Tourane Hotel","address":"5 Dong Da","cityid":"5848e3787339a503efe9beeb","district":"Hai Chau","telephone":"","kname":"사이공 투란 호텔"}
{"_id":{"$oid":"5846621e8c37af5a779719ca"},"reviews":[],"geometry":{"coordinate":{"latitude":15.975558,"longitude":108.28247}},"subcategoryid":"5843e3b225e3685babdd86f7","name":"L10","address":"Ocean Villa Resort And Spa, Non Nuoc Beach","cityid":"5848e3787339a503efe9beeb","district":"Ngu Hanh Son","telephone":"","kname":"L10"}
{"_id":{"$oid":"5846621e8c37af5a779719cb"},"reviews":[],"geometry":{"coordinate":{"latitude":16.0669289574501,"longitude":108.24330210685707}},"subcategoryid":"5843e3b225e3685babdd86f7","name":"Gold Summer Hotel","address":"227 Ho Nghinh, Phuoc My","cityid":"5848e3787339a503efe9beeb","district":"","telephone":"","kname":"골드 서머 호텔"}
{"_id":{"$oid":"5846621e8c37af5a779719cf"},"reviews":[],"geometry":{"coordinate":{"latitude":16.019428,"longitude":108.21007}},"subcategoryid":"5843e3b225e3685babdd86f7","name":"Huong Son Hotel Da Nang","address":"147A Cach Mang Thang Tam, Hoa Vang","cityid":"5848e3787339a503efe9beeb","district":"","telephone":"","kname":"흐엉 손 호텔 다낭"}
{"_id":{"$oid":"5846621e8c37af5a779719cc"},"reviews":[],"geometry":{"coordinate":{"latitude":16.0663567650785,"longitude":108.208615779877}},"subcategoryid":"5843e3b225e3685babdd86f7","name":"Little Home Hotel","address":"74 Ly Thai To","cityid":"5848e3787339a503efe9beeb","district":"Hai Chau","telephone":"","kname":"리틀 홈 호텔"}
{"_id":{"$oid":"5846621e8c37af5a779719ce"},"reviews":[],"geometry":{"coordinate":{"latitude":16.072744950656247,"longitude":108.19124007364735}},"subcategoryid":"5843e3b225e3685babdd86f7","name":"Tuan Sai Gon Hotel Danang","address":"1179 Nguyen Tat Thanh, Xuan Ha","cityid":"5848e3787339a503efe9beeb","district":"","telephone":"","kname":"투안 사이 공 호텔 다낭"}
{"_id":{"$oid":"5846621e8c37af5a779719d1"},"reviews":[],"geometry":{"coordinate":{"latitude":16.06829,"longitude":108.2436949}},"subcategoryid":"5843e3b225e3685babdd86f7","name":"Funtastic Beach Hostel","address":"K02/05 Ha Bong, Phuoc My","cityid":"5848e3787339a503efe9beeb","district":"","telephone":"","kname":"펀타스틱 비치 호스텔"}
{"_id":{"$oid":"5846621e8c37af5a779719d0"},"reviews":[],"geometry":{"coordinate":{"latitude":16.0537790116113,"longitude":108.245038509369}},"subcategoryid":"5843e3b225e3685babdd86f7","name":"Silver Sea Hotel Danang","address":"Lot 4.5 B2.5 Area 387 My Khe Beach","cityid":"5848e3787339a503efe9beeb","district":"Ngu Hanh Son","telephone":"","kname":"실버 씨 호텔 다낭"}
{"_id":{"$oid":"5846621e8c37af5a779719d2"},"reviews":[],"geometry":{"coordinate":{"latitude":16.0704961016079,"longitude":108.237926959991}},"subcategoryid":"5843e3b225e3685babdd86f7","name":"Sea Garden Hotel","address":"Lot 29-30-31-32-33 Le Van Quy, Phuoc My","cityid":"5848e3787339a503efe9beeb","district":"","telephone":"","kname":"씨 가든 호텔"}
{"_id":{"$oid":"5846621e8c37af5a779719d3"},"reviews":[],"geometry":{"coordinate":{"latitude":16.0586036539912,"longitude":108.21143746376}},"subcategoryid":"5843e3b225e3685babdd86f7","name":"Long Anh Hotel","address":"11 Le Dinh Ly","cityid":"5848e3787339a503efe9beeb","district":"Hai Chau","telephone":"","kname":"롱 안 호텔"}
{"_id":{"$oid":"5846621e8c37af5a779719cd"},"reviews":[],"geometry":{"coordinate":{"latitude":16.0656703325241,"longitude":108.243320763111}},"subcategoryid":"5843e3b225e3685babdd86f7","name":"Hien Hoa Hotel Danang","address":"281 Ho Nghinh","cityid":"5848e3787339a503efe9beeb","district":"Son Tra","telephone":"","kname":"히엔 호아 호텔 다낭"}
{"_id":{"$oid":"5846621e8c37af5a779719d7"},"reviews":[],"geometry":{"coordinate":{"latitude":16.07055795903472,"longitude":108.23710083961487}},"subcategoryid":"5843e3b225e3685babdd86f7","name":"Hawaii Hotel","address":"06-07 H2 Pham Van Dong, Phuoc My","cityid":"5848e3787339a503efe9beeb","district":"","telephone":"","kname":"하와이 호텔"}
{"_id":{"$oid":"5846621e8c37af5a779719d4"},"reviews":[],"geometry":{"coordinate":{"latitude":16.0493222538548,"longitude":108.24826687574387}},"subcategoryid":"5843e3b225e3685babdd86f7","name":"Anna Hotel","address":"Block 21-22, An Thuong 1, Phuoc My","cityid":"5848e3787339a503efe9beeb","district":"","telephone":"","kname":"안나 호텔"}
{"_id":{"$oid":"5846621e8c37af5a779719d8"},"reviews":[],"geometry":{"coordinate":{"latitude":16.06281532162675,"longitude":108.24210584163666}},"subcategoryid":"5843e3b225e3685babdd86f7","name":"Hoang Dai 2 Hotel","address":"97 Vo Van Kiet, Phuoc My","cityid":"5848e3787339a503efe9beeb","district":"","telephone":"","kname":"호앙 다이 2 호텔"}
{"_id":{"$oid":"5846621e8c37af5a779719d9"},"reviews":[],"geometry":{"coordinate":{"latitude":16.067991987276017,"longitude":108.2443642616272}},"subcategoryid":"5843e3b225e3685babdd86f7","name":"Anh Duong 2 Hotel Danang","address":"21 Ha Bong, Phuoc My","cityid":"5848e3787339a503efe9beeb","district":"Son Tra","telephone":"","kname":"안둥 2 호텔 다낭"}
{"_id":{"$oid":"5846621e8c37af5a779719d5"},"reviews":[],"geometry":{"coordinate":{"latitude":16.0663103710303,"longitude":108.244342803955}},"subcategoryid":"5843e3b225e3685babdd86f7","name":"Sundc Hotel Danang","address":"No. 45 Ha Bong, Phuoc My","cityid":"5848e3787339a503efe9beeb","district":"Son Tra","telephone":"","kname":"Sundc 호텔 다낭"}
{"_id":{"$oid":"5846621e8c37af5a779719da"},"reviews":[],"geometry":{"coordinate":{"latitude":16.0751467921478,"longitude":108.2449221611023}},"subcategoryid":"5843e3b225e3685babdd86f7","name":"Orchid Hotel Danang","address":"Lot B2.4 - 10 Vo Nguyen Giap","cityid":"5848e3787339a503efe9beeb","district":"Son Tra","telephone":"","kname":"오키드 호텔 다낭"}
{"_id":{"$oid":"5846621e8c37af5a779719d6"},"reviews":[],"geometry":{"coordinate":{"latitude":16.073616,"longitude":108.2419}},"subcategoryid":"5843e3b225e3685babdd86f7","name":"Eena Hotel","address":"76 Loseby, Phuoc My","cityid":"5848e3787339a503efe9beeb","district":"","telephone":"","kname":"Eena Hotel"}
{"_id":{"$oid":"5846621e8c37af5a779719db"},"reviews":[],"geometry":{"coordinate":{"latitude":16.068776650745356,"longitude":108.24399948120117}},"subcategoryid":"5843e3b225e3685babdd86f7","name":"Monaco Hotel Danang","address":"99 Duong Dinh Nghe, Phuoc My","cityid":"5848e3787339a503efe9beeb","district":"","telephone":"","kname":"모나코 호텔 다낭"}
{"_id":{"$oid":"5846621e8c37af5a779719df"},"reviews":[],"geometry":{"coordinate":{"latitude":16.0672176304545,"longitude":108.22451591491699}},"subcategoryid":"5843e3b225e3685babdd86f7","name":"Paradise Hotel Danang","address":"1 Pham Phu Thu","cityid":"5848e3787339a503efe9beeb","district":"Hai Chau","telephone":"","kname":"파라다이스 호텔 다낭"}
{"_id":{"$oid":"5846621e8c37af5a779719e0"},"reviews":[],"geometry":{"coordinate":{"latitude":16.070722912079,"longitude":108.223743438721}},"subcategoryid":"5843e3b225e3685babdd86f7","name":"Stargazer Hotel","address":"77 Tran Phu","cityid":"5848e3787339a503efe9beeb","district":"Hai Chau","telephone":"","kname":"스타 가제 호텔"}
{"_id":{"$oid":"5846621e8c37af5a779719de"},"reviews":[],"geometry":{"coordinate":{"latitude":16.050957213244917,"longitude":108.2454351335764}},"subcategoryid":"5843e3b225e3685babdd86f7","name":"Duc Anh Hotel Da Nang","address":"387 Le Quang Dao And 01 An Thuong, Phuoc My","cityid":"5848e3787339a503efe9beeb","district":"","telephone":"","kname":"둑 안 호텔 다 낭"}
{"_id":{"$oid":"5846621e8c37af5a779719dc"},"reviews":[],"geometry":{"coordinate":{"latitude":16.0707454681396,"longitude":108.236640930176}},"subcategoryid":"5843e3b225e3685babdd86f7","name":"Salsa 2 Hotel","address":"G5 Pham Van Dong, Phuoc My","cityid":"5848e3787339a503efe9beeb","district":"","telephone":"","kname":"살사 2 호텔"}
{"_id":{"$oid":"5846621e8c37af5a779719e2"},"reviews":[],"geometry":{"coordinate":{"latitude":16.0708363172176,"longitude":108.23575437068894}},"subcategoryid":"5843e3b225e3685babdd86f7","name":"Hoai Sang Hotel","address":"Lot 33 Pham Van Dong, Phuoc My","cityid":"5848e3787339a503efe9beeb","district":"","telephone":"","kname":"호이 상 호텔"}
{"_id":{"$oid":"5846621e8c37af5a779719e3"},"reviews":[],"geometry":{"coordinate":{"latitude":16.0708363172176,"longitude":108.23575437068894}},"subcategoryid":"5843e3b225e3685babdd86f7","name":"Luxury Hotel Danang","address":"205 Tran Phu","cityid":"5848e3787339a503efe9beeb","district":"Hai Chau","telephone":"","kname":"럭셔리 호텔 다낭"}
{"_id":{"$oid":"5846621e8c37af5a779719e1"},"reviews":[],"geometry":{"coordinate":{"latitude":16.050078491640253,"longitude":108.24743539094925}},"subcategoryid":"5843e3b225e3685babdd86f7","name":"Palazzo Hotel \u0026 Apartment","address":"9,10,11 Tran Bach Dang, Phuoc My","cityid":"5848e3787339a503efe9beeb","district":"","telephone":"","kname":"Palazzo hotel \u0026 Apartment"}
{"_id":{"$oid":"5846621e8c37af5a779719e4"},"reviews":[],"geometry":{"coordinate":{"latitude":16.0711498260498,"longitude":108.211204528809}},"subcategoryid":"5843e3b225e3685babdd86f7","name":"Son Tra Ii Hotel Danang","address":"138 Hai Phong","cityid":"5848e3787339a503efe9beeb","district":"Hai Chau","telephone":"","kname":"손 트라 II 호텔 다낭"}
{"_id":{"$oid":"5846621e8c37af5a779719e7"},"reviews":[],"geometry":{"coordinate":{"latitude":16.0771770477295,"longitude":108.218627929688}},"subcategoryid":"5843e3b225e3685babdd86f7","name":"Caraven Hotel Danang","address":"206-208-210 Ly Tu Trong, Xuan Ha","cityid":"5848e3787339a503efe9beeb","district":"","telephone":"","kname":"카라벤 호텔 다낭"}
{"_id":{"$oid":"5846621e8c37af5a779719e8"},"reviews":[],"geometry":{"coordinate":{"latitude":16.0494644629817,"longitude":108.248196887102}},"subcategoryid":"5843e3b225e3685babdd86f7","name":"Lotus Residence","address":"26-28 An Thuong 1, My An","cityid":"5848e3787339a503efe9beeb","district":"Ngu Hanh Son","telephone":"","kname":"로터스 레지던스"}
{"_id":{"$oid":"5846621e8c37af5a779719e6"},"reviews":[],"geometry":{"coordinate":{"latitude":16.0660209655762,"longitude":108.219375610352}},"subcategoryid":"5843e3b225e3685babdd86f7","name":"An Nam Hotel","address":"11A Tran Binh Trong","cityid":"5848e3787339a503efe9beeb","district":"Hai Chau","telephone":"","kname":"안 남 호텔"}
{"_id":{"$oid":"5846621e8c37af5a779719e9"},"reviews":[],"geometry":{"coordinate":{"latitude":16.055770704031,"longitude":108.24491438885207}},"subcategoryid":"5843e3b225e3685babdd86f7","name":"Huynh Gia Hung Hotel","address":"169 Nguyen Van Thoai, Phuoc My","cityid":"5848e3787339a503efe9beeb","district":"","telephone":"","kname":"후인 기아 훙 호텔"}
{"_id":{"$oid":"5846621e8c37af5a779719ea"},"reviews":[],"geometry":{"coordinate":{"latitude":16.07416443,"longitude":108.2040512}},"subcategoryid":"5843e3b225e3685babdd86f7","name":"Hoang Linh Dan Hotel","address":"435-437 Nguyen Tat Thanh, Xuan Ha","cityid":"5848e3787339a503efe9beeb","district":"","telephone":"","kname":"Hoang Linh Dan Hotel"}
{"_id":{"$oid":"5846621e8c37af5a779719ec"},"reviews":[],"geometry":{"coordinate":{"latitude":16.054613,"longitude":108.24448}},"subcategoryid":"5843e3b225e3685babdd86f7","name":"Haya Hotel","address":"48 Phan Liem","cityid":"5848e3787339a503efe9beeb","district":"Ngu Hanh Son","telephone":"","kname":"Haya Hotel"}
{"_id":{"$oid":"5846621e8c37af5a779719eb"},"reviews":[],"geometry":{"coordinate":{"latitude":16.0284595355685,"longitude":108.22196245193504}},"subcategoryid":"5843e3b225e3685babdd86f7","name":"Zion Hotel 2 Da Nang","address":"662 Nui Thanh","cityid":"5848e3787339a503efe9beeb","district":"Hai Chau","telephone":"","kname":"지온 호텔 2 다낭"}
{"_id":{"$oid":"5846621e8c37af5a779719dd"},"reviews":[],"geometry":{"coordinate":{"latitude":16.05180396823444,"longitude":108.24621766805649}},"subcategoryid":"5843e3b225e3685babdd86f7","name":"Tolia Hotel","address":"22-23 Do Ba, Phuoc My","cityid":"5848e3787339a503efe9beeb","district":"","telephone":"","kname":"톨리아 호텔"}
{"_id":{"$oid":"5846621e8c37af5a779719ed"},"reviews":[],"geometry":{"coordinate":{"latitude":16.080628864748782,"longitude":108.16031321883202}},"subcategoryid":"5843e3b225e3685babdd86f7","name":"Lucky Bee Homestay","address":"435 Kinh Duong Vuong, Hoa Minh","cityid":"5848e3787339a503efe9beeb","district":"","telephone":"","kname":"럭키 비 홈스테이"}
{"_id":{"$oid":"5846621e8c37af5a779719f0"},"reviews":[],"geometry":{"coordinate":{"latitude":16.068738311686563,"longitude":108.22485387325287}},"subcategoryid":"5843e3b225e3685babdd86f7","name":"Bamboo Green Riverside Hotel","address":"68 Bach Dang","cityid":"5848e3787339a503efe9beeb","district":"Hai Chau","telephone":"","kname":"뱀부 그린 리버사이드 호텔"}
{"_id":{"$oid":"5846621e8c37af5a779719ef"},"reviews":[],"geometry":{"coordinate":{"latitude":16.062190330266038,"longitude":108.2108473777771}},"subcategoryid":"5843e3b225e3685babdd86f7","name":"Hoang Anh Gia Lai Apartment","address":"72 Ham Nghi","cityid":"5848e3787339a503efe9beeb","district":"Hai Chau","telephone":"","kname":"Hoang Anh Gia Lai Apartment"}
{"_id":{"$oid":"5846621e8c37af5a779719ee"},"reviews":[],"geometry":{"coordinate":{"latitude":16.0693981290793,"longitude":108.24207365512802}},"subcategoryid":"5843e3b225e3685babdd86f7","name":"Maple Hotel Da Nang","address":"03 Nguyen Cao Luyen","cityid":"5848e3787339a503efe9beeb","district":"Son Tra","telephone":"","kname":"메이플 호텔 다낭"}
{"_id":{"$oid":"5846621e8c37af5a779719f1"},"reviews":[],"geometry":{"coordinate":{"latitude":16.0425761021004,"longitude":108.248150199652}},"subcategoryid":"5843e3b225e3685babdd86f7","name":"Dreams Hotel Danang","address":"410 Vo Nguyen Giap, Phuoc My","cityid":"5848e3787339a503efe9beeb","district":"","telephone":"","kname":"드림스 호텔 다낭"}
{"_id":{"$oid":"5846621e8c37af5a779719f2"},"reviews":[],"geometry":{"coordinate":{"latitude":16.0654659330262,"longitude":108.19816413335502}},"subcategoryid":"5843e3b225e3685babdd86f7","name":"Kim Long Hotel Da Nang","address":"159-161 Dien Bien Phu","cityid":"5848e3787339a503efe9beeb","district":"Hai Chau","telephone":"","kname":"킴 롱 호텔 다낭"}
{"_id":{"$oid":"5846621e8c37af5a779719f4"},"reviews":[],"geometry":{"coordinate":{"latitude":16.0669131,"longitude":108.244417}},"subcategoryid":"5843e3b225e3685babdd86f7","name":"Valentine Hotel","address":"53 Ha Bong, Phuoc My","cityid":"5848e3787339a503efe9beeb","district":"","telephone":"","kname":"발렌타인 호텔"}
{"_id":{"$oid":"5846621e8c37af5a779719f3"},"reviews":[],"geometry":{"coordinate":{"latitude":16.01741,"longitude":108.26047}},"subcategoryid":"5843e3b225e3685babdd86f7","name":"Mj Villa - The Ocean Villas","address":"Truong Sa","cityid":"5848e3787339a503efe9beeb","district":"Ngu Hanh Son","telephone":"","kname":"MJ 빌라 - 디 오션 빌라"}
{"_id":{"$oid":"5846621e8c37af5a779719f5"},"reviews":[],"geometry":{"coordinate":{"latitude":16.072619,"longitude":108.220205}},"subcategoryid":"5843e3b225e3685babdd86f7","name":"Dana Pearl Hotel Da Nang","address":"Corner Le Loi - Hai Phong","cityid":"5848e3787339a503efe9beeb","district":"Hai Chau","telephone":"","kname":"다나 펄 호텔 다낭"}
{"_id":{"$oid":"5846621e8c37af5a779719e5"},"reviews":[],"geometry":{"coordinate":{"latitude":16.0460548400879,"longitude":108.222496032715}},"subcategoryid":"5843e3b225e3685babdd86f7","name":"Manh Cuong Hotel","address":"492 2 Thang 9","cityid":"5848e3787339a503efe9beeb","district":"Hai Chau","telephone":"","kname":"만 쿠옹 호텔"}
{"_id":{"$oid":"5846621e8c37af5a779719f9"},"reviews":[],"geometry":{"coordinate":{"latitude":16.0648096466081,"longitude":108.243312835693}},"subcategoryid":"5843e3b225e3685babdd86f7","name":"Red Rosemallow Hotel Danang","address":"214 Ho Nghinh","cityid":"5848e3787339a503efe9beeb","district":"Son Tra","telephone":"","kname":"레드 로즈맬로우 호텔 다낭"}
{"_id":{"$oid":"5846621e8c37af5a779719fa"},"reviews":[],"geometry":{"coordinate":{"latitude":16.0993908030373,"longitude":108.254890441603}},"subcategoryid":"5843e3b225e3685babdd86f7","name":"Sea View Dn Hotel","address":"Lot 41 Hoang Sa, Tho Quang","cityid":"5848e3787339a503efe9beeb","district":"Son Tra","telephone":"","kname":"씨 뷰 DN호텔"}
{"_id":{"$oid":"5846621e8c37af5a779719f8"},"reviews":[],"geometry":{"coordinate":{"latitude":16.08182543549462,"longitude":108.21959712076932}},"subcategoryid":"5843e3b225e3685babdd86f7","name":"Trang Thu Hotel","address":"41 Dong Da","cityid":"5848e3787339a503efe9beeb","district":"Hai Chau","telephone":"","kname":""}
{"_id":{"$oid":"5846621e8c37af5a779719fb"},"reviews":[],"geometry":{"coordinate":{"latitude":16.067611655542077,"longitude":108.2442569732666}},"subcategoryid":"5843e3b225e3685babdd86f7","name":"Nice Sea Hotel Da Nang","address":"01 Ha Bong, Phuoc My","cityid":"5848e3787339a503efe9beeb","district":"","telephone":"","kname":"나이스 씨 호텔 다낭"}
{"_id":{"$oid":"5846621e8c37af5a779719fc"},"reviews":[],"geometry":{"coordinate":{"latitude":16.05659831213352,"longitude":108.23084056377411}},"subcategoryid":"5843e3b225e3685babdd86f7","name":"Euro Village","address":"17 Bang Lang 3, Phuoc My","cityid":"5848e3787339a503efe9beeb","district":"","telephone":"","kname":"Euro Village"}
{"_id":{"$oid":"5846621e8c37af5a779719fe"},"reviews":[],"geometry":{"coordinate":{"latitude":16.0620523823254,"longitude":108.24537813663505}},"subcategoryid":"5843e3b225e3685babdd86f7","name":"My Hanh Hotel","address":"12 Lam Hoanh","cityid":"5848e3787339a503efe9beeb","district":"Son Tra","telephone":"","kname":"마이 한 호텔"}
{"_id":{"$oid":"5846621e8c37af5a779719fd"},"reviews":[],"geometry":{"coordinate":{"latitude":16.055473095713417,"longitude":108.24358253488754}},"subcategoryid":"5843e3b225e3685babdd86f7","name":"Thanh Nhan Motel","address":"227/5 Nguyen Van Thoai, Phuoc My","cityid":"5848e3787339a503efe9beeb","district":"","telephone":"","kname":"탄 난 모텔"}
{"_id":{"$oid":"5846621e8c37af5a779719f6"},"reviews":[],"geometry":{"coordinate":{"latitude":16.0432608572916,"longitude":108.247668743134}},"subcategoryid":"5843e3b225e3685babdd86f7","name":"Sea View Hotel Da Nang","address":"Lot 14 Vo Nguyen Giap, Phuoc My","cityid":"5848e3787339a503efe9beeb","district":"","telephone":"","kname":"씨뷰 호텔 다낭"}
{"_id":{"$oid":"5846621e8c37af5a779719f7"},"reviews":[],"geometry":{"coordinate":{"latitude":16.0604130839323,"longitude":108.214752674103}},"subcategoryid":"5843e3b225e3685babdd86f7","name":"Do Hai Hotel Da Nang","address":"193 (77) Nguyen Van Linh","cityid":"5848e3787339a503efe9beeb","district":"Hai Chau","telephone":"","kname":"도 하이 호텔 다낭"}
{"_id":{"$oid":"5846621e8c37af5a779719ff"},"reviews":[],"geometry":{"coordinate":{"latitude":15.974626,"longitude":108.280086}},"subcategoryid":"5843e3b225e3685babdd86f7","name":"Garden Apartment By The Pool In 5-Star Ocean Villas Beach Resort","address":"The Ocean Villas Resort - The Apartment Building, Hoa Hai","cityid":"5848e3787339a503efe9beeb","district":"Ngu Hanh Son","telephone":"","kname":"Garden Apartment By The Pool In 5-Star Ocean Villas Beach Resort"}
{"_id":{"$oid":"5846621e8c37af5a77971a00"},"reviews":[],"geometry":{"coordinate":{"latitude":16.0610885620117,"longitude":108.246192932129}},"subcategoryid":"5843e3b225e3685babdd86f7","name":"Van Xuan Hotel Danang","address":"262 Vo Nguyen Giap","cityid":"5848e3787339a503efe9beeb","district":"Son Tra","telephone":"","kname":"반수안 호텔 다낭"}
{"_id":{"$oid":"5846621e8c37af5a77971a01"},"reviews":[],"geometry":{"coordinate":{"latitude":16.051146,"longitude":108.24545}},"subcategoryid":"5843e3b225e3685babdd86f7","name":"Danang Beach Hotel","address":"Lot 39 An Thuong 30, My An","cityid":"5848e3787339a503efe9beeb","district":"Ngu Hanh Son","telephone":"","kname":"다낭 비치 호텔"}
{"_id":{"$oid":"5846621e8c37af5a77971a02"},"reviews":[],"geometry":{"coordinate":{"latitude":16.067547541946468,"longitude":108.24313044548035}},"subcategoryid":"5843e3b225e3685babdd86f7","name":"Lee Park Hotel","address":"155 Ho Nghinh","cityid":"5848e3787339a503efe9beeb","district":"Son Tra","telephone":"","kname":"리 파크 호텔"}
{"_id":{"$oid":"5846621e8c37af5a77971a04"},"reviews":[],"geometry":{"coordinate":{"latitude":16.065746307373,"longitude":108.244598388672}},"subcategoryid":"5843e3b225e3685babdd86f7","name":"Van Son Hotel Danang","address":"111-113 Ha Bong, Phuoc My","cityid":"5848e3787339a503efe9beeb","district":"","telephone":"","kname":"반손 호텔 다낭"}
{"_id":{"$oid":"5846621e8c37af5a77971a03"},"reviews":[],"geometry":{"coordinate":{"latitude":16.057773682048023,"longitude":108.24546933174133}},"subcategoryid":"5843e3b225e3685babdd86f7","name":"Cavilla Hotel","address":"Lot 46, My Khe 4, Phuoc My","cityid":"5848e3787339a503efe9beeb","district":"","telephone":"","kname":"카비야 호텔"}
{"_id":{"$oid":"5846621e8c37af5a77971a05"},"reviews":[],"geometry":{"coordinate":{"latitude":16.0660934448242,"longitude":108.219795227051}},"subcategoryid":"5843e3b225e3685babdd86f7","name":"Hoang Dai Hotel Danang","address":"7 Tran Binh Trong","cityid":"5848e3787339a503efe9beeb","district":"Hai Chau","telephone":"","kname":"호앙 다이 호텔 다낭"}
{"_id":{"$oid":"5846621e8c37af5a77971a06"},"reviews":[],"geometry":{"coordinate":{"latitude":16.0774137046031,"longitude":108.244181871414}},"subcategoryid":"5843e3b225e3685babdd86f7","name":"Steps Hotel","address":"11 Tran Huu Tuoc, Phuoc My","cityid":"5848e3787339a503efe9beeb","district":"","telephone":"","kname":"스텝 호텔"}
{"_id":{"$oid":"5846621e8c37af5a77971a07"},"reviews":[],"geometry":{"coordinate":{"latitude":16.036742114783,"longitude":108.223745282739}},"subcategoryid":"5843e3b225e3685babdd86f7","name":"Lucky Star Hotel Da Nang","address":"440 2/9 Street","cityid":"5848e3787339a503efe9beeb","district":"Hai Chau","telephone":"","kname":"럭키 스타 호텔 다낭"}
{"_id":{"$oid":"5846621e8c37af5a77971a09"},"reviews":[],"geometry":{"coordinate":{"latitude":16.076674017115515,"longitude":108.23297023773193}},"subcategoryid":"5843e3b225e3685babdd86f7","name":"Huong Duy Hotel Danang","address":"23 Hoang Duc Luong","cityid":"5848e3787339a503efe9beeb","district":"Son Tra","telephone":"","kname":"후옹 두이 호텔 다낭"}
{"_id":{"$oid":"5846621e8c37af5a77971a0a"},"reviews":[],"geometry":{"coordinate":{"latitude":16.0656967163086,"longitude":108.219520568848}},"subcategoryid":"5843e3b225e3685babdd86f7","name":"Thanh Hien Hotel","address":"52 Hoang Dieu","cityid":"5848e3787339a503efe9beeb","district":"Hai Chau","telephone":"","kname":"탄 히엔 호텔"}
{"_id":{"$oid":"5846621e8c37af5a77971a0d"},"reviews":[],"geometry":{"coordinate":{"latitude":16.0648257557754,"longitude":108.220653533936}},"subcategoryid":"5843e3b225e3685babdd86f7","name":"Nhat Linh Hotel Da Nang","address":"194 Nguyen Chi Thanh","cityid":"5848e3787339a503efe9beeb","district":"Hai Chau","telephone":"","kname":"낫 린 호텔 다낭"}
{"_id":{"$oid":"5846621e8c37af5a77971a0b"},"reviews":[],"geometry":{"coordinate":{"latitude":16.07921394296356,"longitude":108.22381921112537}},"subcategoryid":"5843e3b225e3685babdd86f7","name":"Elegant Hotel Da Nang","address":"22 Bach Dang","cityid":"5848e3787339a503efe9beeb","district":"Hai Chau","telephone":"","kname":"엘레간트 호텔 다낭"}
{"_id":{"$oid":"5846621e8c37af5a77971a0c"},"reviews":[],"geometry":{"coordinate":{"latitude":15.966527938842773,"longitude":108.28823852539062}},"subcategoryid":"5843e3b225e3685babdd86f7","name":"Luxury Villas Danang","address":"Villas J7, The Ocean Villas","cityid":"5848e3787339a503efe9beeb","district":"Son Tra","telephone":"","kname":"럭셔리 빌라 다낭"}
{"_id":{"$oid":"5846621e8c37af5a77971a0e"},"reviews":[],"geometry":{"coordinate":{"latitude":16.1045972424766,"longitude":108.25792551040604}},"subcategoryid":"5843e3b225e3685babdd86f7","name":"New Day Hotel Da Nang","address":"33 Ngo Cao Lang, Tho Quang","cityid":"5848e3787339a503efe9beeb","district":"","telephone":"","kname":"뉴 데이 호텔 다낭"}
{"_id":{"$oid":"5846621e8c37af5a77971a0f"},"reviews":[],"geometry":{"coordinate":{"latitude":16.0736920434809,"longitude":108.24288368225098}},"subcategoryid":"5843e3b225e3685babdd86f7","name":"Ocean Haven Hotel","address":"295-297 Ho Nghinh, Phuoc My","cityid":"5848e3787339a503efe9beeb","district":"","telephone":"","kname":"오션 헤이븐 호텔"}
{"_id":{"$oid":"5846621e8c37af5a77971a11"},"reviews":[],"geometry":{"coordinate":{"latitude":16.04104575576174,"longitude":108.24862360954285}},"subcategoryid":"5843e3b225e3685babdd86f7","name":"Sea Phoenix Da Nang Hotel","address":"115 Ho Xuan Huong, Phuoc My","cityid":"5848e3787339a503efe9beeb","district":"","telephone":"","kname":"씨 피닉스 다낭 호텔"}
{"_id":{"$oid":"5846621e8c37af5a77971a10"},"reviews":[],"geometry":{"coordinate":{"latitude":16.0824844846097,"longitude":108.247647285461}},"subcategoryid":"5843e3b225e3685babdd86f7","name":"Jazz Hotel","address":"68 Vo Nguyen Giap, Phuoc My","cityid":"5848e3787339a503efe9beeb","district":"","telephone":"","kname":"재즈 호텔"}
{"_id":{"$oid":"5846621e8c37af5a77971a12"},"reviews":[],"geometry":{"coordinate":{"latitude":16.060908108846988,"longitude":108.22308763861656}},"subcategoryid":"5843e3b225e3685babdd86f7","name":"Vanda Hotel","address":"03 Nguyen Van Linh, Binh Hien","cityid":"5848e3787339a503efe9beeb","district":"Hai Chau","telephone":"","kname":"반다 호텔"}
{"_id":{"$oid":"5846621e8c37af5a77971a08"},"reviews":[],"geometry":{"coordinate":{"latitude":16.0268230438232,"longitude":108.24853515625}},"subcategoryid":"5843e3b225e3685babdd86f7","name":"The Marble Mountain Hotel","address":"338 Le Van Hien","cityid":"5848e3787339a503efe9beeb","district":"Ngu Hanh Son","telephone":"","kname":"더 마블 마운틴 호텔"}
{"_id":{"$oid":"5846621e8c37af5a77971a15"},"reviews":[],"geometry":{"coordinate":{"latitude":16.0597019195557,"longitude":108.22240447998}},"subcategoryid":"5843e3b225e3685babdd86f7","name":"Phu My Hotel Da Nang","address":"03 Trung Nu Vuong","cityid":"5848e3787339a503efe9beeb","district":"Hai Chau","telephone":"","kname":"푸 마이 호텔 다낭"}
{"_id":{"$oid":"5846621e8c37af5a77971a16"},"reviews":[],"geometry":{"coordinate":{"latitude":16.0477518843523,"longitude":108.22753071785}},"subcategoryid":"5843e3b225e3685babdd86f7","name":"The Blossom Resort Danang","address":"Lo A1-A2, Zone Of The Villas Of Green Island, Hoa Cuong Bac","cityid":"5848e3787339a503efe9beeb","district":"Hai Chau","telephone":"","kname":"블로썸 리조트 다낭"}
{"_id":{"$oid":"5846621e8c37af5a77971a17"},"reviews":[],"geometry":{"coordinate":{"latitude":16.06831617883007,"longitude":108.24419796466827}},"subcategoryid":"5843e3b225e3685babdd86f7","name":"Grand Sea Hotel","address":"08 Ha Bong, Phuoc My","cityid":"5848e3787339a503efe9beeb","district":"","telephone":"","kname":"그랜드 씨 호텔"}
{"_id":{"$oid":"5846621e8c37af5a77971a18"},"reviews":[],"geometry":{"coordinate":{"latitude":16.0539885880501,"longitude":108.220181107608}},"subcategoryid":"5843e3b225e3685babdd86f7","name":"Gold Hotel I Danang","address":"24 Nui Thanh","cityid":"5848e3787339a503efe9beeb","district":"Hai Chau","telephone":"","kname":"골드 호텔 I 다낭"}
{"_id":{"$oid":"5846621e8c37af5a77971a14"},"reviews":[],"geometry":{"coordinate":{"latitude":16.069563083085534,"longitude":108.22391241788864}},"subcategoryid":"5843e3b225e3685babdd86f7","name":"Ocean Flower Hotel Da Nang","address":"94 Tran Phu","cityid":"5848e3787339a503efe9beeb","district":"","telephone":"","kname":"오션 플라워 호텔 다낭"}
{"_id":{"$oid":"5846621e8c37af5a77971a19"},"reviews":[],"geometry":{"coordinate":{"latitude":16.067100213940954,"longitude":108.22482109068005}},"subcategoryid":"5843e3b225e3685babdd86f7","name":"Happy Day Hotel Da Nang","address":"160 Bach Dang","cityid":"5848e3787339a503efe9beeb","district":"Hai Chau","telephone":"","kname":"해피 데이 호탈 다 낭"}
{"_id":{"$oid":"5846621e8c37af5a77971a1a"},"reviews":[],"geometry":{"coordinate":{"latitude":15.9997099589557,"longitude":108.269120997138}},"subcategoryid":"5843e3b225e3685babdd86f7","name":"Melia Danang Resort","address":"Group 39, Hoa Hai","cityid":"5848e3787339a503efe9beeb","district":"Ngu Hanh Son","telephone":"","kname":"멜리아 다낭 리조트"}
{"_id":{"$oid":"5846621e8c37af5a77971a1b"},"reviews":[],"geometry":{"coordinate":{"latitude":16.0704135894775,"longitude":108.243804931641}},"subcategoryid":"5843e3b225e3685babdd86f7","name":"Sofia Boutique Hotel Danang","address":"Slot L11 - Pham Van Dong, Phuoc My","cityid":"5848e3787339a503efe9beeb","district":"","telephone":"","kname":"소피아 부티크 호텔 다낭"}
{"_id":{"$oid":"5846621e8c37af5a77971a1c"},"reviews":[],"geometry":{"coordinate":{"latitude":16.048371,"longitude":108.227005}},"subcategoryid":"5843e3b225e3685babdd86f7","name":"Grand Mercure Danang","address":"Lot A1 Zone Of The Villas Of Green Island","cityid":"5848e3787339a503efe9beeb","district":"Hai Chau","telephone":"","kname":"그랜드 머큐어 다낭"}
{"_id":{"$oid":"5846621e8c37af5a77971a13"},"reviews":[],"geometry":{"coordinate":{"latitude":16.06482011756697,"longitude":108.2329349918291}},"subcategoryid":"5843e3b225e3685babdd86f7","name":"Muong Thanh Grand Da Nang Hotel","address":"962 Ngo Quyen","cityid":"5848e3787339a503efe9beeb","district":"Son Tra","telephone":"","kname":"무엉탄 그랜드 다낭 호텔"}
{"_id":{"$oid":"5846621e8c37af5a77971a1d"},"reviews":[],"geometry":{"coordinate":{"latitude":16.0674753738544,"longitude":108.224671483039}},"subcategoryid":"5843e3b225e3685babdd86f7","name":"Sun River Hotel","address":"132-134-136 Bach Dang","cityid":"5848e3787339a503efe9beeb","district":"Hai Chau","telephone":"","kname":"그랜드 머큐어 다낭"}
{"_id":{"$oid":"5846621e8c37af5a77971a20"},"reviews":[],"geometry":{"coordinate":{"latitude":15.973665696082673,"longitude":108.28157186508179}},"subcategoryid":"5843e3b225e3685babdd86f7","name":"Mangala Garden Villa","address":"Villa J2, The Oceanvillas, Truong Sa","cityid":"5848e3787339a503efe9beeb","district":"Ngu Hanh Son","telephone":"","kname":"망갈라 가든 빌라"}
{"_id":{"$oid":"5846621e8c37af5a77971a21"},"reviews":[],"geometry":{"coordinate":{"latitude":16.0498085021973,"longitude":108.248016357422}},"subcategoryid":"5843e3b225e3685babdd86f7","name":"Chu Hotel Danang","address":"02-04-06 An Thuong 1","cityid":"5848e3787339a503efe9beeb","district":"Ngu Hanh Son","telephone":"","kname":"추 호텔 다낭"}
{"_id":{"$oid":"5846621e8c37af5a77971a23"},"reviews":[],"geometry":{"coordinate":{"latitude":16.039782957874152,"longitude":108.24631690979004}},"subcategoryid":"5843e3b225e3685babdd86f7","name":"Titan Hotel","address":"102-104 Ho Xuan Huong","cityid":"5848e3787339a503efe9beeb","district":"Ngu Hanh Son","telephone":"","kname":"타이탄 호텔"}
{"_id":{"$oid":"5846621e8c37af5a77971a22"},"reviews":[],"geometry":{"coordinate":{"latitude":16.049697823836,"longitude":108.24813303966903}},"subcategoryid":"5843e3b225e3685babdd86f7","name":"Emily Hotel","address":"Lot 40-42 An Thuong 1, My An","cityid":"5848e3787339a503efe9beeb","district":"","telephone":"","kname":"에밀리 호텔"}
{"_id":{"$oid":"5846621e8c37af5a77971a1f"},"reviews":[],"geometry":{"coordinate":{"latitude":16.063671611186816,"longitude":108.24500530958176}},"subcategoryid":"5843e3b225e3685babdd86f7","name":"Gold Hotel III","address":"27 Vo Van Kiet, Phuoc My","cityid":"5848e3787339a503efe9beeb","district":"","telephone":"","kname":"골드 호텔 III"}
{"_id":{"$oid":"5846621e8c37af5a77971a25"},"reviews":[],"geometry":{"coordinate":{"latitude":16.0680465698242,"longitude":108.223670959473}},"subcategoryid":"5843e3b225e3685babdd86f7","name":"Mayana Hotel Danang","address":"40 Nguyen Thai Hoc","cityid":"5848e3787339a503efe9beeb","district":"Hai Chau","telephone":"","kname":"마야나 호텔 다낭"}
{"_id":{"$oid":"5846621e8c37af5a77971a26"},"reviews":[],"geometry":{"coordinate":{"latitude":16.0678877625996,"longitude":108.217354416847}},"subcategoryid":"5843e3b225e3685babdd86f7","name":"Louis Hotel","address":"121 Hung Vuong","cityid":"5848e3787339a503efe9beeb","district":"Hai Chau","telephone":"","kname":"루이 호텔"}
{"_id":{"$oid":"5846621e8c37af5a77971a24"},"reviews":[],"geometry":{"coordinate":{"latitude":16.0517896301377,"longitude":108.246713876724}},"subcategoryid":"5843e3b225e3685babdd86f7","name":"Suite De Ville Da Nang Beach","address":"16-17-18 Do Ba, My An","cityid":"5848e3787339a503efe9beeb","district":"Ngu Hanh Son","telephone":"","kname":"스위트 드 빌 다낭 비치"}
{"_id":{"$oid":"5846621e8c37af5a77971a1e"},"reviews":[],"geometry":{"coordinate":{"latitude":16.055175914556767,"longitude":108.24276298022596}},"subcategoryid":"5843e3b225e3685babdd86f7","name":"Lavender Danang Hotel","address":"163 Nguyen Van Thoai, An Hai Dong","cityid":"5848e3787339a503efe9beeb","district":"Son Tra","telephone":"","kname":"라벤더 다낭 호텔"}
{"_id":{"$oid":"5846621e8c37af5a77971a27"},"reviews":[],"geometry":{"coordinate":{"latitude":16.0487397807226,"longitude":108.24836988933384}},"subcategoryid":"5843e3b225e3685babdd86f7","name":"Zenta Hotel","address":"54 An Thuong 1, Phuoc My","cityid":"5848e3787339a503efe9beeb","district":"","telephone":"","kname":"젠타 호텔"}
{"_id":{"$oid":"5846621e8c37af5a77971a28"},"reviews":[],"geometry":{"coordinate":{"latitude":16.0673046112061,"longitude":108.221351623535}},"subcategoryid":"5843e3b225e3685babdd86f7","name":"Vinapha 2 Hotel Danang","address":"19 Pham Hong Thai","cityid":"5848e3787339a503efe9beeb","district":"Hai Chau","telephone":"","kname":"비나파 2 호텔 다낭"}
{"_id":{"$oid":"5846621e8c37af5a77971a2a"},"reviews":[],"geometry":{"coordinate":{"latitude":16.0672272307865,"longitude":108.229372501373}},"subcategoryid":"5843e3b225e3685babdd86f7","name":"Kay Hotel Danang","address":"357 Tran Hung Dao, Phuoc My","cityid":"5848e3787339a503efe9beeb","district":"","telephone":"","kname":"카이 호텔 다낭"}
{"_id":{"$oid":"5846621e8c37af5a77971a2b"},"reviews":[],"geometry":{"coordinate":{"latitude":16.0687240931091,"longitude":108.244176417611}},"subcategoryid":"5843e3b225e3685babdd86f7","name":"Beautiful Beach Hotel Danang","address":"02 Ha Bong, Phuoc My","cityid":"5848e3787339a503efe9beeb","district":"Son Tra","telephone":"","kname":"뷰티풀 비치 호텔 다낭"}
{"_id":{"$oid":"5846621e8c37af5a77971a2c"},"reviews":[],"geometry":{"coordinate":{"latitude":16.0894057078881,"longitude":108.219242691994}},"subcategoryid":"5843e3b225e3685babdd86f7","name":"Night Sky Hotel Da Nang","address":"65 Xuan Dieu","cityid":"5848e3787339a503efe9beeb","district":"Hai Chau","telephone":"","kname":"나이트 스카이 호텔 다낭"}
{"_id":{"$oid":"5846621e8c37af5a77971a2d"},"reviews":[],"geometry":{"coordinate":{"latitude":16.0113309853136,"longitude":108.26356887817406}},"subcategoryid":"5843e3b225e3685babdd86f7","name":"Olalani Resort And Condotel","address":"Truong Sa, Khue My","cityid":"5848e3787339a503efe9beeb","district":"Ngu Hanh Son","telephone":"","kname":"울랄라니 리조트 앤 콘도텔"}
{"_id":{"$oid":"5846621e8c37af5a77971a2e"},"reviews":[],"geometry":{"coordinate":{"latitude":16.0484730821798,"longitude":108.247881770134}},"subcategoryid":"5843e3b225e3685babdd86f7","name":"Aurora Hotel","address":"30 - B2.1 Ngo Thi Si, Phuoc My","cityid":"5848e3787339a503efe9beeb","district":"","telephone":"","kname":"오로라 호텔"}
{"_id":{"$oid":"5846621e8c37af5a77971a2f"},"reviews":[],"geometry":{"coordinate":{"latitude":16.0663206808197,"longitude":108.24437499046303}},"subcategoryid":"5843e3b225e3685babdd86f7","name":"Dragon Sea Hotel Da Nang","address":"82 Ha Bong, Phuoc My","cityid":"5848e3787339a503efe9beeb","district":"","telephone":"","kname":"드래곤 씨 호텔 다낭"}
{"_id":{"$oid":"5846621e8c37af5a77971a30"},"reviews":[],"geometry":{"coordinate":{"latitude":16.0683612823486,"longitude":108.244316101074}},"subcategoryid":"5843e3b225e3685babdd86f7","name":"Danang Port Hotel","address":"20 Ha Bong","cityid":"5848e3787339a503efe9beeb","district":"Son Tra","telephone":"","kname":"다낭 포트 호텔"}
{"_id":{"$oid":"5846621e8c37af5a77971a31"},"reviews":[],"geometry":{"coordinate":{"latitude":16.079155954151,"longitude":108.245423734188}},"subcategoryid":"5843e3b225e3685babdd86f7","name":"Rich Land Hotel","address":"20 Phuoc Truong 1, Phuoc My","cityid":"5848e3787339a503efe9beeb","district":"","telephone":"","kname":"리치 랜드 호텔"}
{"_id":{"$oid":"5846621e8c37af5a77971a32"},"reviews":[],"geometry":{"coordinate":{"latitude":16.066372229758816,"longitude":108.24317336082458}},"subcategoryid":"5843e3b225e3685babdd86f7","name":"Maya Hotel","address":"200 Ho Nghinh, Phuoc My","cityid":"5848e3787339a503efe9beeb","district":"","telephone":"","kname":"마야 호텔"}
{"_id":{"$oid":"5846621e8c37af5a77971a29"},"reviews":[],"geometry":{"coordinate":{"latitude":16.0545177459717,"longitude":108.241073608398}},"subcategoryid":"5843e3b225e3685babdd86f7","name":"Nemo Hotel Danang","address":"100/2 Nguyen Van Thoai","cityid":"5848e3787339a503efe9beeb","district":"Ngu Hanh Son","telephone":"","kname":"네모 호텔 다낭"}
{"_id":{"$oid":"5846621e8c37af5a77971a33"},"reviews":[],"geometry":{"coordinate":{"latitude":16.0710940559285,"longitude":108.209388256073}},"subcategoryid":"5843e3b225e3685babdd86f7","name":"Faifo Hotel","address":"200 Hai Phong","cityid":"5848e3787339a503efe9beeb","district":"Hai Chau","telephone":"","kname":"파이포 호텔"}
{"_id":{"$oid":"5846621e8c37af5a77971a35"},"reviews":[],"geometry":{"coordinate":{"latitude":16.07478483762759,"longitude":108.24493288993835}},"subcategoryid":"5843e3b225e3685babdd86f7","name":"Sekong Da Nang Hotel","address":"152 Vo Nguyen Giap","cityid":"5848e3787339a503efe9beeb","district":"","telephone":"","kname":"세콩 다낭 호텔"}
{"_id":{"$oid":"5846621e8c37af5a77971a34"},"reviews":[],"geometry":{"coordinate":{"latitude":16.0427398681641,"longitude":108.247924804688}},"subcategoryid":"5843e3b225e3685babdd86f7","name":"Thai Duong Hotel - Truong Sa Street","address":"Lot 1. B4.4 Vo Nguyen Giap","cityid":"5848e3787339a503efe9beeb","district":"Ngu Hanh Son","telephone":"","kname":"타이 두옹 호텔 - 투롱 사 스트리트"}
{"_id":{"$oid":"5846621e8c37af5a77971a36"},"reviews":[],"geometry":{"coordinate":{"latitude":16.031037456147,"longitude":108.22518110275303}},"subcategoryid":"5843e3b225e3685babdd86f7","name":"Solar Hotel Da Nang","address":"28 Truong Tri Cuong","cityid":"5848e3787339a503efe9beeb","district":"Hai Chau","telephone":"","kname":"솔라 호텔 다낭"}
{"_id":{"$oid":"5846621e8c37af5a77971a38"},"reviews":[],"geometry":{"coordinate":{"latitude":16.0601759516003,"longitude":108.214259147644}},"subcategoryid":"5843e3b225e3685babdd86f7","name":"Los Hotel","address":"132 Nguyen Van Linh","cityid":"5848e3787339a503efe9beeb","district":"Hai Chau","telephone":"","kname":"로스 호텔"}
{"_id":{"$oid":"5846621e8c37af5a77971a37"},"reviews":[],"geometry":{"coordinate":{"latitude":16.04309652592685,"longitude":108.2480388879776}},"subcategoryid":"5843e3b225e3685babdd86f7","name":"Royal Huy Hotel Danang","address":"360-362 Vo Nguyen Giap, Phuoc My","cityid":"5848e3787339a503efe9beeb","district":"","telephone":"","kname":"Royal Huy Hotel Danang"}
{"_id":{"$oid":"5846621e8c37af5a77971a39"},"reviews":[],"geometry":{"coordinate":{"latitude":16.080167,"longitude":108.229007}},"subcategoryid":"5843e3b225e3685babdd86f7","name":"Han River Hotel Danang","address":"125 Tran Hung Dao","cityid":"5848e3787339a503efe9beeb","district":"Son Tra","telephone":"","kname":"한 리버 호텔 다낭"}
{"_id":{"$oid":"5846621e8c37af5a77971a3a"},"reviews":[],"geometry":{"coordinate":{"latitude":16.0802590273309,"longitude":108.22122216224693}},"subcategoryid":"5843e3b225e3685babdd86f7","name":"Tien Sa Hotel Da Nang","address":"21 Ly Thuong Kiet","cityid":"5848e3787339a503efe9beeb","district":"Hai Chau","telephone":"","kname":"티엔 사 호텔 다낭"}
{"_id":{"$oid":"5846621e8c37af5a77971a3b"},"reviews":[],"geometry":{"coordinate":{"latitude":16.043728,"longitude":108.24764}},"subcategoryid":"5843e3b225e3685babdd86f7","name":"Hava Hotel","address":"364 Vo Nguyen Giap, Phuoc My","cityid":"5848e3787339a503efe9beeb","district":"","telephone":"","kname":"하바 호텔 다낭"}
{"_id":{"$oid":"5846621e8c37af5a77971a3c"},"reviews":[],"geometry":{"coordinate":{"latitude":16.0653000090749,"longitude":108.24453592300392}},"subcategoryid":"5843e3b225e3685babdd86f7","name":"Truong Son Tung II Hotel Da Nang","address":"7 Ha Bong, Phuoc My","cityid":"5848e3787339a503efe9beeb","district":"Son Tra","telephone":"","kname":"트룽 손 텅 II 호텔 다낭"}
{"_id":{"$oid":"5846621e8c37af5a77971a40"},"reviews":[],"geometry":{"coordinate":{"latitude":16.06136273809617,"longitude":108.24548006057739}},"subcategoryid":"5843e3b225e3685babdd86f7","name":"Packo Hostel Da Nang","address":"44 Lam Hoanh, Phuoc My","cityid":"5848e3787339a503efe9beeb","district":"Son Tra","telephone":"","kname":"팍코 호스텔 다낭"}
{"_id":{"$oid":"5846621e8c37af5a77971a3f"},"reviews":[],"geometry":{"coordinate":{"latitude":16.0445232016103,"longitude":108.24829249391803}},"subcategoryid":"5843e3b225e3685babdd86f7","name":"Mimosa 2 Hotel","address":"360/03 Vo Nguyen Giap, Phuoc My","cityid":"5848e3787339a503efe9beeb","district":"","telephone":"","kname":"미모사 2 호텔"}
{"_id":{"$oid":"5846621e8c37af5a77971a3e"},"reviews":[],"geometry":{"coordinate":{"latitude":16.0802177910605,"longitude":108.219049572945}},"subcategoryid":"5843e3b225e3685babdd86f7","name":"Magnolia Hotel","address":"6 Le Loi, Xuan Ha","cityid":"5848e3787339a503efe9beeb","district":"","telephone":"","kname":"매그놀리아 호텔"}
{"_id":{"$oid":"5846621e8c37af5a77971a41"},"reviews":[],"geometry":{"coordinate":{"latitude":16.0734858552326,"longitude":108.24252963066101}},"subcategoryid":"5843e3b225e3685babdd86f7","name":"Cali Hotel Da Nang","address":"82 Loseby, Phuoc My","cityid":"5848e3787339a503efe9beeb","district":"","telephone":"","kname":"칼리 호텔 다 낭"}
{"_id":{"$oid":"5846621e8c37af5a77971a42"},"reviews":[],"geometry":{"coordinate":{"latitude":16.0698318585805,"longitude":108.235558748245}},"subcategoryid":"5843e3b225e3685babdd86f7","name":"Phi Yen Hotel","address":"150 Duong Dinh Nghe, Phuoc My","cityid":"5848e3787339a503efe9beeb","district":"","telephone":"","kname":"피 옌 호텔"}
{"_id":{"$oid":"5846621e8c37af5a77971a43"},"reviews":[],"geometry":{"coordinate":{"latitude":16.07358178112,"longitude":108.242803215981}},"subcategoryid":"5843e3b225e3685babdd86f7","name":"Gia Linh Hotel","address":"88-90 Loseby, Phuoc My","cityid":"5848e3787339a503efe9beeb","district":"","telephone":"","kname":"지아 린 호텔"}
{"_id":{"$oid":"5846621e8c37af5a77971a44"},"reviews":[],"geometry":{"coordinate":{"latitude":16.0546818,"longitude":108.24467440000001}},"subcategoryid":"5843e3b225e3685babdd86f7","name":"Open Hotel","address":"Lot 52-53 Phan Liem, Phuoc My","cityid":"5848e3787339a503efe9beeb","district":"","telephone":"","kname":"오픈 호텔"}
{"_id":{"$oid":"5846621e8c37af5a77971a3d"},"reviews":[],"geometry":{"coordinate":{"latitude":16.0818462371826,"longitude":108.212448120117}},"subcategoryid":"5843e3b225e3685babdd86f7","name":"Hai Au Hotel Danang","address":"713 Nguyen Tat Thanh, Xuan Ha","cityid":"5848e3787339a503efe9beeb","district":"","telephone":"","kname":"하이 어 호텔 다낭"}
{"_id":{"$oid":"5846621e8c37af5a77971a45"},"reviews":[],"geometry":{"coordinate":{"latitude":16.068396958416933,"longitude":108.22279930114746}},"subcategoryid":"5843e3b225e3685babdd86f7","name":"Vien Dong 2 Hostel","address":"21 Yen Bai","cityid":"5848e3787339a503efe9beeb","district":"Hai Chau","telephone":"","kname":"비엔 동 2 호스텔"}
{"_id":{"$oid":"5846621e8c37af5a77971a48"},"reviews":[],"geometry":{"coordinate":{"latitude":16.056997835580393,"longitude":108.17232683300972}},"subcategoryid":"5843e3b225e3685babdd86f7","name":"Thy Phuong Danang Hotel","address":"201 Ton Duc Thang, Hoa Minh","cityid":"5848e3787339a503efe9beeb","district":"","telephone":"","kname":"티 푸옹 다낭 호텔"}
{"_id":{"$oid":"5846621e8c37af5a77971a49"},"reviews":[],"geometry":{"coordinate":{"latitude":16.056244,"longitude":108.24586}},"subcategoryid":"5843e3b225e3685babdd86f7","name":"Sea Wind Hotel","address":"231/1 Nguyen Van Thoai, Phuoc My","cityid":"5848e3787339a503efe9beeb","district":"Son Tra","telephone":"","kname":"시 윈드 호텔"}
{"_id":{"$oid":"5846621e8c37af5a77971a47"},"reviews":[],"geometry":{"coordinate":{"latitude":16.066738,"longitude":108.22083}},"subcategoryid":"5843e3b225e3685babdd86f7","name":"Vanilla Hotel Da Nang","address":"158A Nguyen Chi Thanh, Hoa Minh","cityid":"5848e3787339a503efe9beeb","district":"","telephone":"","kname":"바닐라 호텔 다낭"}
{"_id":{"$oid":"5846621e8c37af5a77971a4a"},"reviews":[],"geometry":{"coordinate":{"latitude":16.0491180541607,"longitude":108.247365653515}},"subcategoryid":"5843e3b225e3685babdd86f7","name":"Hi Danang Beach Hostel","address":"35 An Thuong 2, Phuoc My","cityid":"5848e3787339a503efe9beeb","district":"","telephone":"","kname":"하이 다낭 비치 호스텔"}
{"_id":{"$oid":"5846621e8c37af5a77971a4b"},"reviews":[],"geometry":{"coordinate":{"latitude":16.0558765903261,"longitude":108.247604370117}},"subcategoryid":"5843e3b225e3685babdd86f7","name":"Dong Nam A Hotel Da Nang","address":"408 Vo Nguyen Giap, Phuoc My","cityid":"5848e3787339a503efe9beeb","district":"","telephone":"","kname":"동 남 아 호텔 다낭"}
{"_id":{"$oid":"5846621e8c37af5a77971a4c"},"reviews":[],"geometry":{"coordinate":{"latitude":16.055141,"longitude":108.24581}},"subcategoryid":"5843e3b225e3685babdd86f7","name":"New Boutique Hotel Da Nang","address":"Lot 1 Phan Liem, My An","cityid":"5848e3787339a503efe9beeb","district":"Ngu Hanh Son","telephone":"","kname":"뉴 부티크 호텔 다낭"}
{"_id":{"$oid":"5846621e8c37af5a77971a4d"},"reviews":[],"geometry":{"coordinate":{"latitude":16.0712177703911,"longitude":108.23923587799095}},"subcategoryid":"5843e3b225e3685babdd86f7","name":"Aloha Hotel Da Nang","address":"11 Morrison - An Cu 3, An Hai Bac","cityid":"5848e3787339a503efe9beeb","district":"Son Tra","telephone":"","kname":"알로하 호텔 다낭"}
{"_id":{"$oid":"5846621e8c37af5a77971a4e"},"reviews":[],"geometry":{"coordinate":{"latitude":16.072398157086663,"longitude":108.20130944252014}},"subcategoryid":"5843e3b225e3685babdd86f7","name":"Vy Thuyen Hotel","address":"10-12 Ton That Dam","cityid":"5848e3787339a503efe9beeb","district":"Thanh Khe","telephone":"","kname":"Vy Thuyen Hotel"}
{"_id":{"$oid":"5846621e8c37af5a77971a46"},"reviews":[],"geometry":{"coordinate":{"latitude":16.0722074833212,"longitude":108.201223611832}},"subcategoryid":"5843e3b225e3685babdd86f7","name":"Quoc Thien Hotel Da Nang","address":"48-50 Ton That Dam, Xuan Ha","cityid":"5848e3787339a503efe9beeb","district":"","telephone":"","kname":"쿠옥 티엔 호텔 다낭"}
{"_id":{"$oid":"5846621e8c37af5a77971a52"},"reviews":[],"geometry":{"coordinate":{"latitude":16.069435340395415,"longitude":108.22413504123688}},"subcategoryid":"5843e3b225e3685babdd86f7","name":"Fc Hotel Danang","address":"83 Tran Phu","cityid":"5848e3787339a503efe9beeb","district":"Hai Chau","telephone":"","kname":"FC 호텔 다낭"}
{"_id":{"$oid":"5846621e8c37af5a77971a4f"},"reviews":[],"geometry":{"coordinate":{"latitude":16.068720269773994,"longitude":108.2384204864502}},"subcategoryid":"5843e3b225e3685babdd86f7","name":"Flamingo Hotel","address":"63 Duong Dinh Nghe","cityid":"5848e3787339a503efe9beeb","district":"Son Tra","telephone":"","kname":"플라밍고 호텔"}
{"_id":{"$oid":"5846621e8c37af5a77971a53"},"reviews":[],"geometry":{"coordinate":{"latitude":16.1049785614014,"longitude":108.258094787598}},"subcategoryid":"5843e3b225e3685babdd86f7","name":"Canh Buom Hotel Danang","address":"55 Ngo Cao Lang","cityid":"5848e3787339a503efe9beeb","district":"Son Tra","telephone":"","kname":"칸 부옴 호텔 다낭"}
{"_id":{"$oid":"5846621e8c37af5a77971a54"},"reviews":[],"geometry":{"coordinate":{"latitude":16.070405570651527,"longitude":108.2352340221405}},"subcategoryid":"5843e3b225e3685babdd86f7","name":"Thanh Hoang Chau Hotel","address":"56 Hoang Dieu","cityid":"5848e3787339a503efe9beeb","district":"Hai Chau","telephone":"","kname":"탄 호앙 초 호텔"}
{"_id":{"$oid":"5846621e8c37af5a77971a51"},"reviews":[],"geometry":{"coordinate":{"latitude":16.080408096313477,"longitude":108.22122955322266}},"subcategoryid":"5843e3b225e3685babdd86f7","name":"Thu Bon Hotel Danang","address":"08 Ly Thuong Kiet","cityid":"5848e3787339a503efe9beeb","district":"Hai Chau","telephone":"","kname":"투 본 호텔 다낭"}
{"_id":{"$oid":"5846621e8c37af5a77971a56"},"reviews":[],"geometry":{"coordinate":{"latitude":12.228059,"longitude":109.1986}},"cityid":"5848e3457339a503efe9beea","subcategoryid":"5843e3b225e3685babdd86f7","name":"Ifriends Hostel","address":"96A/6/7A Trần Phú","district":"Loc Tho","kname":"아이프렌즈 호스텔","telephone":""}
{"_id":{"$oid":"5846621e8c37af5a77971a55"},"reviews":[],"geometry":{"coordinate":{"latitude":12.2833805084229,"longitude":109.202857971191}},"cityid":"5848e3457339a503efe9beea","subcategoryid":"5843e3b225e3685babdd86f7","name":"Muong Thanh Grand Nha Trang Hotel","address":"6 Duong Hien Quyen","district":"Vinh Hoa","kname":"무옹 탄 그랜드 나짱 호텔","telephone":""}
{"_id":{"$oid":"5846621e8c37af5a77971a58"},"reviews":[],"geometry":{"coordinate":{"latitude":12.2530163901559,"longitude":109.195518493652}},"cityid":"5848e3457339a503efe9beea","subcategoryid":"5843e3b225e3685babdd86f7","name":"Ttc Hotel Premium - Michelia","address":"04 Pasteur","district":"Xuong Huan","kname":"TTC 호텔 프리미엄 - 미첼리아","telephone":""}
{"_id":{"$oid":"5846621e8c37af5a77971a57"},"reviews":[],"geometry":{"coordinate":{"latitude":12.25066667,"longitude":109.1957972}},"cityid":"5848e3457339a503efe9beea","subcategoryid":"5843e3b225e3685babdd86f7","name":"Sunrise Nha Trang Beach Hotel \u0026 Spa","address":"12 Tran Phu","district":"Xuong Huan","kname":"선라이즈 나 트랑 비치 호텔 앤 스파","telephone":""}
{"_id":{"$oid":"5846621e8c37af5a77971a59"},"reviews":[],"geometry":{"coordinate":{"latitude":12.236620954509887,"longitude":109.19379380640748}},"cityid":"5848e3457339a503efe9beea","subcategoryid":"5843e3b225e3685babdd86f7","name":"The Summer Hotel Nha Trang","address":"34C-D Nguyen Thien Thuat","district":"Tan Lap","kname":"더 썸머 호텔 나짱","telephone":""}
{"_id":{"$oid":"5846621e8c37af5a77971a50"},"reviews":[],"geometry":{"coordinate":{"latitude":16.0640937538985,"longitude":108.219231963158}},"subcategoryid":"5843e3b225e3685babdd86f7","name":"Golden Gate 1 Hotel","address":"69 Le Hong Phong","cityid":"5848e3787339a503efe9beeb","district":"Hai Chau","telephone":"","kname":"골든 게이트 1 호텔"}
{"_id":{"$oid":"5846621e8c37af5a77971a5a"},"reviews":[],"geometry":{"coordinate":{"latitude":12.2483209609791,"longitude":109.19607490272028}},"cityid":"5848e3457339a503efe9beea","subcategoryid":"5843e3b225e3685babdd86f7","name":"Diamond Bay Hotel","address":"20 Tran Phu","district":"Loc Tho","kname":"다이아몬드 베이 호텔","telephone":""}
{"_id":{"$oid":"5846621e8c37af5a77971a5b"},"reviews":[],"geometry":{"coordinate":{"latitude":12.2837549538402,"longitude":109.20342698693298}},"cityid":"5848e3457339a503efe9beea","subcategoryid":"5843e3b225e3685babdd86f7","name":"Nha Trang Wonderland Hotel","address":"Slot 10-11, Pham Van Dong","district":"Vinh Hoa","kname":"나트랑 원더랜드 호텔","telephone":""}
{"_id":{"$oid":"5846621e8c37af5a77971a5e"},"reviews":[],"geometry":{"coordinate":{"latitude":12.2324765878565,"longitude":109.19549703598}},"cityid":"5848e3457339a503efe9beea","subcategoryid":"5843e3b225e3685babdd86f7","name":"La Suisse Hotel","address":"34 Tran Quang Khai","district":"Loc Tho","kname":"라 수이세 호텔","telephone":""}
{"_id":{"$oid":"5846621e8c37af5a77971a5c"},"reviews":[],"geometry":{"coordinate":{"latitude":12.2377401299614,"longitude":109.19615149498}},"cityid":"5848e3457339a503efe9beea","subcategoryid":"5843e3b225e3685babdd86f7","name":"Prime Hotel Nha Trang","address":"04 Ton Dan","district":"Loc Tho","kname":"프라임 호텔 나 뜨랑","telephone":""}
{"_id":{"$oid":"5846621e8c37af5a77971a5f"},"reviews":[],"geometry":{"coordinate":{"latitude":12.2355304511471,"longitude":109.195354852054}},"cityid":"5848e3457339a503efe9beea","subcategoryid":"5843e3b225e3685babdd86f7","name":"Legendsea Hotel","address":"11 Biet Thu","district":"Loc Tho","kname":"Legendsea Hotel","telephone":""}
{"_id":{"$oid":"5846621e8c37af5a77971a5d"},"reviews":[],"geometry":{"coordinate":{"latitude":12.23620965057279,"longitude":109.19424157438698}},